address,housing_type,region,city,sqr_meter,nr_rooms,rent_month,final_price,sold_date,price_increase,price_sqr_m,land_area,other_srq,latitude,longitude
Famngatan 10 ,Lägenhet,Högsbo,Göteborgs kommun,29.0,1.0,1635.0,1725000,2022-09-07,0.0,59483.0,0.0,0.0,57.6626334,11.9270175
Famngatan 8,Lägenhet,Högsbo,Göteborgs kommun,29.0,1.0,1600.0,1775000,2022-09-07,0.0,61207.0,0.0,0.0,57.6626334,11.9270175
Munkebäcksgatan 23 E,Lägenhet,Kålltorp,Göteborgs kommun,65.0,3.0,4510.0,3700000,2022-09-06,-5.0,56923.0,0.0,0.0,57.7170359,12.0244877
Teleskopgatan 14,Lägenhet,Bergsjön,Göteborgs kommun,73.0,2.0,5313.0,1295000,2022-09-06,0.0,17740.0,0.0,0.0,57.760575599999996,12.061175637808509
Blåbärsvägen 22,Villa,Tynnered ,Göteborgs kommun,151.0,5.0,,6500000,2022-09-06,0.0,43046.0,1128.5,23.0,57.6522052,11.886665587289324
Vestagatan 1,Lägenhet,Nya Gårda,Göteborgs kommun,123.0,4.0,6844.0,8430000,2022-09-06,12.0,68537.0,0.0,0.0,57.7115656,11.9945599
Övre Majorsgatan 10A,Lägenhet,Linnéstaden,Göteborgs kommun,63.0,2.0,3357.0,4950000,2022-09-06,4.0,78571.0,0.0,0.0,57.6937406,11.9494267
Sagogången 47,Lägenhet,Hisings Backa,Göteborgs kommun,45.0,2.0,2983.0,1575000,2022-09-06,-5.0,35000.0,0.0,0.0,57.740771,11.9750742
Nordenskiöldsgatan 13,Lägenhet,Linné,Göteborgs kommun,31.0,1.0,1742.0,2575000,2022-09-06,3.0,83065.0,0.0,0.0,57.6927263,11.9513447
Lars Kaggsgatan 45A,Lägenhet,Gamlestaden,Göteborgs kommun,60.0,2.0,3600.0,1800000,2022-09-06,-5.0,30000.0,0.0,0.0,57.7331017,12.0212473
Morängatan 8,Lägenhet,Strömmensberg,Göteborgs kommun,37.0,1.0,2495.0,2010000,2022-09-06,6.0,54324.0,0.0,0.0,57.7203992,12.017901
Solventilsgatan 18,Lägenhet,Kvillebäcken,Göteborgs kommun,55.0,2.0,2733.0,2855000,2022-09-06,3.0,51909.0,0.0,0.0,57.7223859,11.9487387
Chalmersgatan 29A,Lägenhet,Lorensberg ,Göteborgs kommun,101.0,3.0,3981.0,6600000,2022-09-06,-5.0,65347.0,0.0,0.0,57.6979797,11.9754751
Doktor Forselius gata 26,Lägenhet,Guldheden,Göteborgs kommun,81.5,4.0,5231.0,3600000,2022-09-06,6.0,44172.0,0.0,0.0,57.6794425,11.981913
Nilssonsberg 2,Lägenhet,Annedal,Göteborgs kommun,101.6,4.0,5364.0,5510000,2022-09-06,5.0,54232.0,0.0,0.0,57.6939758,11.9586867
Sonya Hedenbratts Gata 3,Lägenhet,Örgryte Torp,Göteborgs kommun,53.0,2.0,3246.0,4220000,2022-09-06,1.0,79623.0,0.0,0.0,57.699596,12.0163665
Vidblicksgatan 9,Lägenhet,Nedre Johanneberg,Göteborgs kommun,42.0,1.0,2004.0,3100000,2022-09-06,7.0,73810.0,0.0,0.0,57.6919695,11.979853903516167
Doktor Allards Gata 12,Lägenhet,Guldheden,Göteborgs kommun,72.0,3.0,3986.0,5000000,2022-09-06,0.0,69444.0,0.0,0.0,57.68221685,11.979516729550125
Laboratoriegatan 24,Lägenhet,Örgryte ,Göteborgs kommun,26.0,1.0,1976.0,1625000,2022-09-06,-9.0,62500.0,0.0,0.0,57.6940767,12.001918
Aschebergsgatan 35,Lägenhet,Vasastaden,Göteborgs kommun,53.0,2.0,1590.0,3150000,2022-09-06,-7.0,59434.0,0.0,0.0,57.6949322,11.9719279
Saltholmsgatan 23B,Lägenhet,Långedrag ,Göteborgs kommun,51.0,2.0,3403.0,3800000,2022-09-06,-5.0,74510.0,0.0,0.0,57.66714155,11.852525934067735
Fruktträdsgatan 11,Lägenhet,Hildedal,Göteborgs kommun,69.0,3.0,3726.0,3195000,2022-09-06,0.0,46304.0,0.0,0.0,,
Gamla Bällskärsgatan 14A,Villa,Hisings Backa ,Göteborgs kommun,159.0,5.0,,5600000,2022-09-06,4.0,35220.0,1040.0,44.0,,
Kärrhöksgatan 5A,Lägenhet,Kålltorp,Göteborgs kommun,51.5,2.0,4114.0,2800000,2022-09-06,-2.0,54369.0,0.0,0.0,57.7099387,12.0258851
Sergelsgatan 4E,Lägenhet,Lunden,Göteborgs kommun,37.0,1.0,2855.0,2350000,2022-09-06,,63514.0,0.0,0.0,57.7100654,12.012353
Värmlandsgatan 22,Lägenhet,Linné,Göteborgs kommun,100.0,3.0,6000.0,5800000,2022-09-06,1.0,58000.0,0.0,0.0,57.698141,11.946905
Hjalmar Brantingsgatan 21D,Lägenhet,Centrala Hisingen,Göteborgs kommun,69.0,3.5,3718.0,2690000,2022-09-06,0.0,38986.0,0.0,0.0,57.720352,11.9557188
Björklundavägen 8,Lägenhet,Nya Hovås,Göteborgs kommun,53.0,2.0,3121.0,2600000,2022-09-06,-10.0,49057.0,0.0,0.0,57.6000347,11.9525532
Lodjursstråket 1 ,Lägenhet,Lindholmen,Göteborgs kommun,49.0,2.0,3817.0,4200000,2022-09-02,-2.0,85714.0,0.0,0.0,57.7095787,11.9390091
Saltmätaregatan 1 ,Villa,Utby,Göteborgs kommun,82.0,6.0,,5400000,2022-08-30,-2.0,65854.0,586.4,82.0,57.7408489,12.0752657
Kabelgatan 14, ,Lägenhet,Majorna,Göteborgs kommun,53.5,2.0,3887.0,2980000,2022-08-30,0.0,55701.0,0.0,0.0,57.690147350000004,11.92490369972362
Bratteråsgatan 50, ,Lägenhet,Eriksberg,Göteborgs kommun,69.0,2.0,3751.0,3550000,2022-08-26,0.0,51449.0,0.0,0.0,57.7049651,11.9136668
Södra Viktoriagatan 31 ,Lägenhet,Vasastaden,Göteborgs kommun,31.8,1.0,2199.0,2450000,2022-08-26,0.0,77044.0,0.0,0.0,57.6937774,11.966752
Befälsgatan 8 ,Lägenhet,Kviberg,Göteborgs kommun,53.0,2.0,1862.0,1850000,2022-08-24,-2.0,34906.0,0.0,0.0,57.7420971,12.0271567
Lodjursstråket 1 (Karlatornet) ,Lägenhet,Lindholmen,Göteborgs kommun,79.0,3.0,5368.0,6100000,2022-08-22,-6.0,77215.0,0.0,0.0,,
Famngatan 10 ,Lägenhet,Högsbo,Göteborgs kommun,29.0,1.0,1635.0,1850000,2022-08-22,0.0,63793.0,0.0,0.0,57.6626334,11.9270175
Kryddhyllan 108,Villa,Gårdsten,Göteborgs kommun,107.0,5.0,,4300000,2022-08-21,,40187.0,414.0,7.0,57.8026863,12.0219867
Bratteråsgatan 40, ,Lägenhet,Eriksberg,Göteborgs kommun,33.0,1.0,2451.0,2820000,2022-08-18,9.0,85455.0,0.0,0.0,57.7036654,11.9146426
Måns bryntessonsgatan 23 B,Lägenhet,Gamlestaden,Göteborgs kommun,51.0,2.0,3795.0,1850000,2022-09-05,-2.0,36275.0,0.0,0.0,57.7340986,12.0081667
Hälleflundregatan 48,Lägenhet,Västra Frölunda,Göteborgs kommun,98.0,3.0,5166.0,6975000,2022-09-05,0.0,71173.0,0.0,0.0,57.6485499,11.853632
Bratteråsgatan 40,Lägenhet,Eriksberg,Göteborgs kommun,77.0,3.0,4221.0,4300000,2022-09-05,-2.0,55844.0,0.0,8.0,57.7036654,11.9146426
Hällskriftsgatan 24,Lägenhet,Centrala Hisingen,Göteborgs kommun,93.4,4.0,5997.0,3160000,2022-09-05,-3.0,33833.0,0.0,0.0,57.7320541,11.9340443
Mandolingatan 7,Lägenhet,Ruddalen,Göteborgs kommun,68.0,3.0,3643.0,2575000,2022-09-05,0.0,37868.0,0.0,0.0,57.6578842,11.9172915
Tygvaktaregatan 13,Villa,Askim,Göteborgs kommun,147.0,7.0,,6200000,2022-09-05,-3.0,42177.0,388.0,8.0,57.636529,11.933073852446878
Lindholmsallén 57,Lägenhet,Lindholmen,Göteborgs kommun,61.0,2.0,3762.0,3545000,2022-09-05,1.0,58115.0,0.0,0.0,57.7082057,11.936029
Östanvindsgatan 5C,Lägenhet,Centrala Hisingen,Göteborgs kommun,58.0,2.0,3690.0,1950000,2022-09-05,3.0,33621.0,0.0,0.0,57.7232068,11.931991
Hallstenshagen 22,Radhus,Hallstenshagen,Göteborgs kommun,145.0,5.0,,5300000,2022-09-05,6.0,36552.0,301.8,0.0,57.64905855,11.883584163561302
Stabbegatan 95,Lägenhet,Björkekärr,Göteborgs kommun,62.0,3.0,4376.0,2990000,2022-09-05,0.0,48226.0,0.0,0.0,57.7174234,12.0462357
Fatabursvägen 7,Lägenhet,Torslanda,Göteborgs kommun,88.0,4.0,4693.0,4400000,2022-09-05,5.0,50000.0,0.0,0.0,57.7442582,11.8198911
Gullringevägen 21,Villa,Säve,Göteborgs kommun,179.0,8.0,,5500000,2022-09-05,10.0,30726.0,2185.8,38.0,57.8031752,11.9160143
Rösebergsgatan 9,Villa,Tolered,Göteborgs kommun,160.0,6.0,,7450000,2022-09-04,-4.0,46562.0,985.6,29.0,57.72512015,11.90722699883796
Lodjursstråket 1,Lägenhet,Lindholmen,Göteborgs kommun,49.0,2.0,3817.0,4200000,2022-09-02,-2.0,85714.0,0.0,0.0,57.7095787,11.9390091
Kabelgatan 14,,Lägenhet,Majorna,Göteborgs kommun,53.5,2.0,3887.0,2980000,2022-08-30,0.0,55701.0,0.0,0.0,57.69014735,11.92490369972362
Lodjursstråket 1 (Karlatornet),Lägenhet,Lindholmen,Göteborgs kommun,79.0,3.0,5368.0,6100000,2022-08-22,-6.0,77215.0,0.0,0.0,,
Birkagatan 18A,Lägenhet,Örgryte,Göteborgs kommun,37.0,1.0,2335.0,2255000,2022-09-05,9.0,60946.0,0.0,0.0,57.7063271,12.0230293
Sörgårdsvägen 15,Villa,Utby,Göteborgs kommun,72.0,4.0,,3750000,2022-09-05,7.0,52083.0,444.1,36.0,57.7361633,12.0585844
Svarvstensvägen 28,Villa,Hisings Kärra,Göteborgs kommun,96.0,4.0,5712.0,3900000,2022-09-04,-2.0,40625.0,0.0,0.0,57.80383245,11.980318152838889
Nolehultsvägen 7,Lägenhet,Tuve,Göteborgs kommun,77.5,3.0,4111.0,3340000,2022-09-04,1.0,43097.0,0.0,0.0,57.75473,11.9286578
Vädursgatan 1,Lägenhet,Gårda,Göteborgs kommun,28.0,1.0,1503.0,2100000,2022-09-04,0.0,75000.0,0.0,0.0,57.7033713,11.9920935
Paradisgatan 25O,Lägenhet,Masthugget,Göteborgs kommun,44.0,2.0,3115.0,2750000,2022-09-04,0.0,62500.0,0.0,0.0,57.6941091,11.9411859
Brunnehagen 23,Lägenhet,Tuve,Göteborgs kommun,80.0,3.0,5240.0,2355000,2022-09-04,7.0,29438.0,0.0,0.0,57.7493428,11.9261568
Masthuggstorget 5,Lägenhet,Masthugget,Göteborgs kommun,87.0,3.0,5356.0,6250000,2022-09-04,1.0,71839.0,0.0,0.0,57.6991064,11.942509
Slättadammsgatan 7B,Lägenhet,Tolered,Göteborgs kommun,58.2,2.0,5080.0,1500000,2022-09-04,1.0,25773.0,0.0,0.0,57.7311803,11.9286477
Kupeskärsgatan 53,Radhus,Önnered,Göteborgs kommun,102.0,5.0,,4755000,2022-09-04,0.0,46618.0,122.3,9.0,57.6410549,11.8925642
Bergklevet 16,Villa,Torslanda,Göteborgs kommun,209.0,8.0,,9210000,2022-09-04,-7.0,44067.0,1050.0,0.0,57.7185923,11.7267338
Eklandagatan 29A,Lägenhet,Johanneberg,Göteborgs kommun,48.0,1.5,3621.0,3000000,2022-09-04,,62500.0,0.0,0.0,57.6922354,11.9870532
Mottagaregatan 3,Radhus,Järnbrott,Göteborgs kommun,87.0,5.0,,4510000,2022-09-03,-5.0,51839.0,324.0,62.0,57.6554612,11.9324976
Axelinas väg 15,Villa,Torslanda,Göteborgs kommun,125.0,4.0,6292.0,6000000,2022-09-03,,48000.0,0.0,0.0,57.7129431,11.724861
Hovås Allé 20,Lägenhet,Hovås,Göteborgs kommun,78.5,3.5,4092.0,4400000,2022-09-03,-3.0,56051.0,0.0,0.0,57.6004582,11.9539867
Pimpinellagatan 21,Radhus,Gårdsten,Göteborgs kommun,103.0,5.0,6736.0,2350000,2022-09-03,7.0,22816.0,0.0,0.0,57.8080574,12.0348177
Liedstrandsgatan 12,Lägenhet,Lunden,Göteborgs kommun,33.0,1.0,1944.0,2500000,2022-09-03,4.0,75758.0,0.0,0.0,57.70996,12.008030425579426
Gamla Björlandavägen 100,Villa,Tolered,Göteborgs kommun,109.0,5.0,,5350000,2022-09-02,,49083.0,729.8,17.0,57.7292686,11.920852
Lodjursstråket 1,Lägenhet,Lindholmen,Göteborgs kommun,49.0,2.0,3817.0,4200000,2022-09-02,-2.0,85714.0,0.0,0.0,57.7095787,11.9390091
Fastlagsgatan 2,Lägenhet,Kortedala,Göteborgs kommun,65.5,3.0,4079.0,1650000,2022-09-02,0.0,25191.0,0.0,0.0,57.75614875,12.030763948238777
Arves Marias väg 12,Lägenhet,Tuve,Göteborgs kommun,33.0,1.0,2202.0,1525000,2022-09-02,-3.0,46212.0,0.0,0.0,57.7503078,11.9296597
Fridkullagatan 17C,Lägenhet,Johanneberg,Göteborgs kommun,58.9,2.0,3769.0,2595000,2022-09-02,0.0,44058.0,0.0,0.0,57.6835143,11.9863818
Hovås klintväg 6,Villa,Hovås,Göteborgs kommun,122.0,7.0,,9120000,2022-09-02,-6.0,74754.0,906.0,143.0,57.61778095,11.930771600000002
Bäckebolsängen 3,Lägenhet,Hisings Backa,Göteborgs kommun,68.5,2.0,4600.0,1595000,2022-09-02,0.0,23285.0,0.0,0.0,57.754185,11.9888863
Penselgatan 6,Lägenhet,Centrala Hisingen,Göteborgs kommun,39.5,1.0,3068.0,2400000,2022-09-02,,60759.0,0.0,0.0,57.7236429,11.9492663
Örnehufvudsgatan 17,Lägenhet,Johanneberg,Göteborgs kommun,50.0,2.0,3250.0,3275000,2022-09-02,,65500.0,0.0,0.0,57.6868327,11.9841505
Vestagatan 1,Lägenhet,Nya Gårda,Göteborgs kommun,54.0,2.0,3403.0,3150000,2022-09-02,0.0,58333.0,0.0,0.0,57.7115656,11.9945599
Trollrunan 80,Radhus,Torslanda,Göteborgs kommun,121.0,5.0,,5400000,2022-09-02,,44628.0,222.0,0.0,57.7272663,11.7583993
Sandbanksvägen 72,Radhus,Skogome,Göteborgs kommun,104.0,4.0,,3940000,2022-09-02,-1.0,37885.0,145.0,0.0,57.762913,11.9482809
Fricksgatan 2C,Lägenhet,Norra Guldheden,Göteborgs kommun,51.5,2.0,3520.0,2920000,2022-09-02,1.0,56699.0,0.0,0.0,57.6873276,11.9646692
Hjortgatan 7,Villa,Långedrag,Göteborgs kommun,172.0,7.0,,10000000,2022-09-02,-5.0,58140.0,657.0,16.0,57.677011,11.885487208628284
Gibraltargatan 21C,Lägenhet,Johanneberg,Göteborgs kommun,25.0,1.0,1411.0,2200000,2022-09-02,-2.0,88000.0,0.0,0.0,57.6863037,11.9829733
Vidblicksgatan 8,Lägenhet,Nedre Johanneberg,Göteborgs kommun,58.0,2.0,3831.0,3450000,2022-09-02,-4.0,59483.0,0.0,0.0,57.69221425,11.979164788107274
Rositas Gata 1,Lägenhet,Eriksbergsplatån,Göteborgs kommun,68.0,3.0,1826.0,4000000,2022-09-02,-9.0,58824.0,0.0,0.0,57.6988882,11.9031274
Fiolgatan 4,Lägenhet,Ruddalen,Göteborgs kommun,69.3,3.0,5047.0,2070000,2022-09-02,-4.0,29870.0,0.0,0.0,57.6609081,11.913439
Lerskäddegatan 20,Radhus,Hinsholmen,Göteborgs kommun,86.0,4.0,,5100000,2022-09-02,-7.0,59302.0,95.6,0.0,57.6600764,11.8635097
Bufjällsleden 2D,Lägenhet,Tolered,Göteborgs kommun,64.0,3.0,4951.0,2300000,2022-09-02,1.0,35938.0,0.0,0.0,57.732322,11.9252516
Erik Dahlbergsgatan 26A,Lägenhet,Vasastaden,Göteborgs kommun,65.0,2.0,3453.0,4800000,2022-09-02,-2.0,73846.0,0.0,0.0,57.6953732,11.9706476
Storhöjdsgatan 15,Lägenhet,Strömmensberg,Göteborgs kommun,37.0,2.0,3307.0,2340000,2022-09-02,0.0,63243.0,0.0,0.0,57.7198799,12.0156447
Eklandagatan 23C,Lägenhet,Johanneberg,Göteborgs kommun,38.3,1.5,2849.0,2775000,2022-09-02,-1.0,72454.0,0.0,0.0,57.6924383,11.9868197
Topasgatan 61,Lägenhet,Tynnered,Göteborgs kommun,70.0,3.0,3959.0,2050000,2022-09-02,5.0,29286.0,0.0,0.0,57.6492408,11.9074074
Styrfarten 2B,Lägenhet,Eriksberg,Göteborgs kommun,66.0,2.0,4045.0,3150000,2022-09-02,-2.0,47727.0,0.0,0.0,57.7002983,11.9115811
Frida Hjertbergs Gata 1,Lägenhet,Johanneberg,Göteborgs kommun,62.5,2.0,2413.0,4000000,2022-09-02,8.0,64000.0,0.0,0.0,57.6874807,11.9860839
Föreningsgatan 1A,Lägenhet,Vasastaden,Göteborgs kommun,43.0,1.0,2708.0,2750000,2022-09-02,-5.0,63953.0,0.0,0.0,57.6943192,11.961653357672768
Tullare Hög 5,Villa,Rödbo,Göteborgs kommun,60.0,3.0,,3900000,2022-09-02,13.0,65000.0,1572.9,2.0,57.8408929,11.958366
Ostgatan 20,Lägenhet,Kallebäck,Göteborgs kommun,85.5,4.0,5886.0,3110000,2022-09-02,4.0,36374.0,0.0,0.0,57.6836528,12.0095049
Sundshagsgatan 26,Villa,Kungsladugård,Göteborgs kommun,153.0,8.0,,13300000,2022-09-02,6.0,86928.0,591.0,90.0,57.68182465,11.93077997068638
Erik Dahlbergsgatan 23,Lägenhet,Vasastaden,Göteborgs kommun,63.0,3.0,2427.0,4350000,2022-09-02,0.0,69048.0,0.0,0.0,57.6953732,11.9706476
Vattentornsgatan 16,Radhus,Hammarkullen,Göteborgs kommun,121.0,4.0,,2840000,2022-09-02,-5.0,23471.0,294.7,0.0,57.78379495,12.04048409999999
Toredalsgatan 65,Villa,Centrala Hisingen,Göteborgs kommun,89.0,6.0,,5350000,2022-09-02,0.0,60112.0,407.0,79.0,57.7266741,11.91809664004298
Ånäsvägen 8C,Lägenhet,Bagaregården,Göteborgs kommun,71.5,3.0,4834.0,4400000,2022-09-02,3.0,61538.0,0.0,0.0,57.7158092,12.0040426
Fyrverkaregatan 5B,Lägenhet,Landala Egnahem,Göteborgs kommun,56.0,2.0,3466.0,3300000,2022-09-02,,58929.0,0.0,0.0,57.6886044,11.9716505
Labbgången 36,Radhus,Hagen,Göteborgs kommun,129.0,5.0,,6550000,2022-09-02,1.0,50775.0,142.0,0.0,57.6740135,11.8858112
Strömsundsvägen 23B,Tomt,Tumlehed,Göteborgs kommun,615.0,,,3850000,2022-09-02,-4.0,6260.0,0.0,0.0,57.7304415,11.7290781
Storhöjdsgatan 7B,Lägenhet,Strömmensberg,Göteborgs kommun,33.5,1.0,2137.0,1900000,2022-09-02,-5.0,56716.0,0.0,0.0,57.7198941,12.0170376
Hjalmar Brantingsgatan 19 B,Lägenhet,Hisingen,Göteborgs kommun,64.9,3.0,3926.0,2200000,2022-09-02,-4.0,33898.0,0.0,0.0,57.720352,11.9557188
Solrosgatan 18 A,Lägenhet,Kålltorp,Göteborgs kommun,57.0,2.0,2859.0,2850000,2022-09-01,0.0,50000.0,0.0,0.0,57.716807,12.0303042
Pontus Wiknersgatan 9,Lägenhet,Nedre Johanneberg,Göteborgs kommun,49.0,2.0,2983.0,3940000,2022-09-01,-1.0,80408.0,0.0,0.0,57.69278865,11.980757432758214
Mölndalsvägen 27,Lägenhet,Almedal,Göteborgs kommun,65.5,2.0,3123.0,2650000,2022-09-01,-4.0,40458.0,0.0,0.0,57.6834723,12.0006205
Gibraltargatan 38,Lägenhet,Johanneberg,Göteborgs kommun,80.0,3.0,4871.0,4200000,2022-09-01,-3.0,52500.0,0.0,0.0,57.6893558,11.9810027
Råstensgatan 15A,Lägenhet,Kålltorp,Göteborgs kommun,44.0,1.0,3046.0,2350000,2022-09-01,-4.0,53409.0,0.0,0.0,57.7115796,12.028457
Lantmilsgatan 28,Lägenhet,Kaverös,Göteborgs kommun,73.5,3.0,4675.0,2200000,2022-09-01,-4.0,29932.0,0.0,0.0,57.6651903,11.9259915
von Gerdesgatan 3,Lägenhet,Johanneberg,Göteborgs kommun,48.0,2.0,2324.0,3275000,2022-09-01,3.0,68229.0,0.0,0.0,57.6873764,11.9851074
Fruktträdsgatan 4,Lägenhet,Centrala Hisingen,Göteborgs kommun,74.0,3.0,4883.0,2995000,2022-09-01,0.0,40473.0,0.0,0.0,,
Wadmansgatan 10,Lägenhet,Lorensberg,Göteborgs kommun,106.0,3.0,3362.0,7250000,2022-09-01,4.0,68396.0,0.0,0.0,57.6996786,11.98227495268934
Palmstedtsgatan 3B,Lägenhet,Johanneberg,Göteborgs kommun,40.0,1.5,2882.0,2880000,2022-09-01,5.0,72000.0,0.0,0.0,57.6900101,11.9813256
Walter Bengtssons Gata 22,Lägenhet,Kungsladugård,Göteborgs kommun,54.0,2.0,2861.0,3150000,2022-09-01,0.0,58333.0,0.0,0.0,57.6861244,11.9096076
Gröna Vallen 8A,Lägenhet,Kungsladugård,Göteborgs kommun,119.0,5.0,5931.0,8100000,2022-09-01,5.0,68067.0,0.0,0.0,57.6877912,11.9195035
Gröna gatan 32,Lägenhet,Majorna,Göteborgs kommun,67.4,2.0,4844.0,2510000,2022-09-01,7.0,37240.0,0.0,0.0,57.6912297,11.9165987
Växelmyntsgatan 53B,Radhus,Högsbohöjd,Göteborgs kommun,96.0,,,4450000,2022-09-01,-2.0,46354.0,249.1,0.0,57.6705032,11.9158638
Noleredsvägen 9A,Lägenhet,Torslanda,Göteborgs kommun,58.5,2.0,3449.0,2300000,2022-09-01,-3.0,39316.0,0.0,0.0,57.7229731,11.7637985
Granitvägen 3,Villa,Askim,Göteborgs kommun,172.0,7.0,,7995000,2022-09-01,0.0,46483.0,747.0,48.0,57.631021450000006,11.947517999999995
Räntmästaregatan 28B,Lägenhet,Lunden,Göteborgs kommun,51.0,2.0,3828.0,2950000,2022-09-01,6.0,57843.0,0.0,0.0,57.7119748,12.0126047
Sjöbackevägen 14,Lägenhet,Billda,Göteborgs kommun,70.0,3.0,3852.0,3600000,2022-09-01,3.0,51429.0,0.0,0.0,57.5677449,11.9403751
Aschebergsgatan 7B,Lägenhet,Vasastaden,Göteborgs kommun,35.0,1.0,2287.0,3250000,2022-09-01,9.0,92857.0,0.0,0.0,57.6913601,11.9737814
Brynolfsgatan 1 B,Lägenhet,Fredriksdal,Göteborgs kommun,67.5,3.0,4132.0,3000000,2022-09-01,-8.0,44444.0,0.0,0.0,57.6815567,11.9982871
Norra Breviksvägen 82,Villa,Näset,Göteborgs kommun,121.0,5.0,,8350000,2022-09-01,-6.0,69008.0,1001.6,0.0,57.620381550000005,11.888126704940287
Skogsmilsgatan 9,Lägenhet,Högsbo,Göteborgs kommun,39.0,2.0,2985.0,1850000,2022-09-01,12.0,47436.0,0.0,0.0,57.6666675,11.9273657
Gamlestadstorget 17,Lägenhet,Gamlestaden,Göteborgs kommun,58.2,2.0,4102.0,2430000,2022-09-01,8.0,41753.0,0.0,0.0,57.7301333,12.0084972
Lotta Svärdsgatan 4 B,Lägenhet,Bellevue,Göteborgs kommun,34.5,1.0,2805.0,1550000,2022-09-01,4.0,44928.0,0.0,0.0,57.7339899,12.0196621
Allmänna vägen 7,Lägenhet,Majorna,Göteborgs kommun,86.0,3.0,4571.0,4250000,2022-09-01,4.0,49419.0,0.0,0.0,57.6981271,11.9321929
Fritiof Anderssons Gata 3,Lägenhet,Eriksberg,Göteborgs kommun,87.0,3.0,4395.0,6160000,2022-09-01,3.0,70805.0,0.0,0.0,57.6997028,11.9058828
Övralidsgatan 23,Lägenhet,Hisings Backa,Göteborgs kommun,60.0,2.0,4437.0,1440000,2022-09-01,-4.0,24000.0,0.0,0.0,57.7543682,11.975449
Slottsskogsgatan 69,Lägenhet,Majorna,Göteborgs kommun,61.0,2.0,3037.0,3700000,2022-09-01,6.0,60656.0,0.0,0.0,57.6855306,11.9277299
Arvid Lindmansgatan 25D,Lägenhet,Centrala Hisingen,Göteborgs kommun,63.0,3.0,3736.0,2625000,2022-09-01,1.0,41667.0,0.0,0.0,57.7308957,11.9217017
Myntgatan 15 A,Lägenhet,Brämaregården,Göteborgs kommun,72.0,3.0,4437.0,2880000,2022-09-01,-1.0,40000.0,0.0,0.0,57.7144407,11.9445357
Måns bryntessonsgatan 23 B,Lägenhet,Gamlestaden,Göteborgs kommun,51.0,2.0,3795.0,1850000,2022-08-31,-2.0,36275.0,0.0,0.0,57.7340986,12.0081667
Beryllgatan 17,Lägenhet,Norra Tynnered,Göteborgs kommun,80.1,3.0,5161.0,2525000,2022-08-31,-3.0,31523.0,0.0,0.0,57.6573819,11.8886007
Salviaterrassen 3,Radhus,Angered,Göteborgs kommun,128.0,5.0,,3615000,2022-08-31,1.0,28242.0,245.2,0.0,57.79993445,12.031729347522122
Astris gata 92,Lägenhet,Eriksberg,Göteborgs kommun,58.0,2.0,3120.0,3200000,2022-08-31,7.0,55172.0,0.0,0.0,57.6992222,11.9027563
Humlekärret 73,Lägenhet,Skintebo,Göteborgs kommun,75.0,3.0,5425.0,3200000,2022-08-31,-3.0,42667.0,0.0,0.0,57.58777284999999,11.938527294339266
Hortensiagången 8,Fritidshus,Askim,Göteborgs kommun,42.0,2.0,,1070000,2022-08-31,20.0,25476.0,300.0,0.0,57.6305201,11.9150227
Ejdergatan 2B,Lägenhet,Bagaregården,Göteborgs kommun,53.0,2.0,3625.0,2530000,2022-08-31,8.0,47736.0,0.0,0.0,57.7207061,12.003972
Saxofongatan 4,Lägenhet,Ruddalen,Göteborgs kommun,27.0,1.0,1919.0,1350000,2022-08-31,-7.0,50000.0,0.0,0.0,57.6601634,11.9200965
Lövskogsåsen 19,Villa,Billdal,Göteborgs kommun,175.0,6.0,,9300000,2022-08-31,13.0,53143.0,163.0,0.0,57.57237115,11.948652725122836
Norra Fiskebäcksvägen 176,Radhus,Fiskebäck,Göteborgs kommun,130.0,5.0,,5900000,2022-08-31,-4.0,45385.0,418.4,8.0,57.654953,11.8690235
Smögengatan 21,Lägenhet,Björkekärr,Göteborgs kommun,80.0,3.0,4519.0,4600000,2022-08-31,-2.0,57500.0,0.0,0.0,57.7185359,12.0450108
Guldvingevägen 12,Villa,Torslanda,Göteborgs kommun,123.0,4.0,,6075000,2022-08-31,2.0,49390.0,585.4,0.0,57.7368401,11.7859837
Kristinehöjdsgatan 5,Lägenhet,Johanneberg,Göteborgs kommun,71.0,3.0,3964.0,4260000,2022-08-31,11.0,60000.0,0.0,0.0,57.691157,11.9891686
Ebbe Lieberathsgatan 16C,Lägenhet,Johanneberg,Göteborgs kommun,31.5,1.0,2363.0,2100000,2022-08-31,-4.0,66667.0,0.0,0.0,57.6820641,11.9991447
Klostergången 11,Lägenhet,Masthugget,Göteborgs kommun,24.5,1.0,1690.0,1850000,2022-08-31,-2.0,75510.0,0.0,0.0,57.6963068,11.9411882
Östra Eriksbergsgatan 102,Lägenhet,Eriksberg,Göteborgs kommun,76.0,3.0,4232.0,4920000,2022-08-31,3.0,64737.0,0.0,0.0,57.7029701,11.9174288
Gåsmossen 12,Radhus,Askim,Göteborgs kommun,123.0,6.0,,6680000,2022-08-31,-1.0,54309.0,184.0,58.0,57.6331545,11.9552687
Ostgatan 6,Lägenhet,Kallebäck,Göteborgs kommun,44.0,2.0,3489.0,1995000,2022-08-31,0.0,45341.0,0.0,0.0,57.6845011,12.0091901
Kabelgatan 12,Lägenhet,Majorna,Göteborgs kommun,53.5,2.0,3887.0,2500000,2022-08-31,2.0,46729.0,0.0,0.0,57.69064185,11.924604699723618
Turkosgatan 19,Lägenhet,Tynnered,Göteborgs kommun,70.2,3.0,4364.0,2300000,2022-08-31,0.0,32764.0,0.0,0.0,57.64817,11.8989059
Bildradiogatan 4,Lägenhet,Järnbrott,Göteborgs kommun,54.5,2.0,3487.0,1850000,2022-08-31,4.0,33945.0,0.0,0.0,57.658206,11.9322434
Astris Gata 68,Lägenhet,Eriksberg,Göteborgs kommun,86.0,4.0,3609.0,4525000,2022-08-31,-5.0,52616.0,0.0,0.0,57.6993715,11.904333
Sjöbackevägen 12,Lägenhet,Billdal,Göteborgs kommun,103.0,4.0,5228.0,4700000,2022-08-31,0.0,45631.0,0.0,0.0,57.5677846,11.9400838
Astris Gata 94,Lägenhet,Eriksberg,Göteborgs kommun,66.0,3.0,3427.0,3655000,2022-08-31,-1.0,55379.0,0.0,0.0,57.6992466,11.9026411
Linnégatan 53,Lägenhet,Linné,Göteborgs kommun,61.5,2.0,3309.0,4650000,2022-08-31,7.0,75610.0,0.0,0.0,57.693095,11.9522065
Fiolgatan 8,Lägenhet,Ruddalen,Göteborgs kommun,37.8,1.0,2936.0,1675000,2022-08-31,0.0,44312.0,0.0,0.0,57.660197,11.9120996
Sonya Hedenbratts Gata 5,Lägenhet,Örgryte Torp,Göteborgs kommun,83.0,3.0,4406.0,6000000,2022-08-31,4.0,72289.0,0.0,0.0,57.699476,12.0165178
Nilssonsberg 23,Lägenhet,Linnéstaden,Göteborgs kommun,102.6,4.0,5311.0,5550000,2022-08-31,-7.0,54094.0,0.0,0.0,57.6948666,11.9612948
Engelbrektsgatan 59,Lägenhet,Lorensberg,Göteborgs kommun,63.0,2.0,3272.0,3950000,2022-08-31,0.0,62698.0,0.0,0.0,57.7004381,11.9816273
Slånbärsvägen 16,Villa,Bräcke,Göteborgs kommun,80.0,4.0,,5575000,2022-08-31,6.0,69688.0,395.0,40.0,57.7054953,11.8969467
Bohusgatan 20,Lägenhet,Centrum,Göteborgs kommun,44.5,2.0,2887.0,2875000,2022-08-31,1.0,64607.0,0.0,0.0,57.7039738,11.9827574
Övralidsgatan 19,Lägenhet,Hisings Backa,Göteborgs kommun,38.0,1.0,2722.0,1200000,2022-08-31,-4.0,31579.0,0.0,0.0,57.7543682,11.975449
Bäckebolsängen 12,Lägenhet,Hisings Backa,Göteborgs kommun,83.6,3.0,5935.0,1600000,2022-08-31,-6.0,19139.0,0.0,0.0,57.7531169,11.9881239
Virvelvindsgatan 24,Lägenhet,Centrala Hisingen,Göteborgs kommun,69.0,3.0,4293.0,2700000,2022-08-31,8.0,39130.0,0.0,0.0,57.7184525,11.9329689
Oxhagsgatan 70,Lägenhet,Kungsladugård,Göteborgs kommun,95.0,4.0,3892.0,6050000,2022-08-31,8.0,63684.0,0.0,0.0,57.6779705,11.93077155
Munspelsgatan 22,Lägenhet,Frölunda,Göteborgs kommun,51.0,2.0,3413.0,2225000,2022-08-31,-7.0,43627.0,0.0,0.0,57.6551606,11.903254
Haråsgatan 19,Lägenhet,Majorna,Göteborgs kommun,73.8,3.0,4282.0,3950000,2022-08-31,-5.0,53523.0,0.0,0.0,57.6941914,11.931333
Aschebergsgatan 11A,Lägenhet,Göteborg,Göteborgs kommun,100.0,2.5,4923.0,6000000,2022-08-31,20.0,60000.0,0.0,0.0,57.6913601,11.9737814
Götaverksgatan 20,Lägenhet,Lindholmen,Göteborgs kommun,62.0,2.0,3464.0,3650000,2022-08-31,-4.0,58871.0,0.0,0.0,57.7083688,11.9432269
Inägogatan 4,Lägenhet,Övre Eriksberg,Göteborgs kommun,103.0,4.0,5720.0,4350000,2022-08-31,-3.0,42233.0,0.0,0.0,57.7106128,11.9123399
Astris gata 58,Lägenhet,Eriksberg,Göteborgs kommun,62.0,2.0,3128.0,3310000,2022-08-31,11.0,53387.0,0.0,0.0,57.6998005,11.9047588
Övre Matrosgatan 6 B,Lägenhet,Gamla Masthugget,Göteborgs kommun,76.0,3.0,3285.0,5000000,2022-08-31,,65789.0,0.0,0.0,57.6958354,11.9449403
Haråsgatan 3,Lägenhet,Majorna,Göteborgs kommun,54.0,2.0,3274.0,3700000,2022-08-31,16.0,68519.0,0.0,0.0,57.6937158,11.9306187
Prilyckegatan 127,Lägenhet,Hisings Kärra,Göteborgs kommun,46.5,1.0,3319.0,1200000,2022-08-31,-7.0,25806.0,0.0,0.0,57.7935333,11.9845506
Sankt Jörgens Allé 1,Lägenhet,Hisings Backa,Göteborgs kommun,83.0,3.0,5317.0,2655000,2022-08-31,-5.0,31988.0,0.0,0.0,57.74967624999999,11.95516122566906
Drivhusgatan 2A,Lägenhet,Johanneberg,Göteborgs kommun,62.0,2.0,2667.0,2940000,2022-08-30,7.0,47419.0,0.0,0.0,57.6854543,11.9961973
Rundbäcksgatan 1,Lägenhet,Kvillebäcken,Göteborgs kommun,101.0,4.0,5405.0,3780000,2022-08-30,-3.0,37426.0,0.0,0.0,57.7230649,11.9489558
Fridkullagatan 17E,Lägenhet,Johanneberg,Göteborgs kommun,59.0,2.5,3577.0,2930000,2022-08-30,1.0,49661.0,0.0,0.0,57.6835143,11.9863818
Fruktträdsgatan 11,Lägenhet,Centrala Hisingen Hildedal,Göteborgs kommun,69.0,3.0,3726.0,3150000,2022-08-30,-1.0,45652.0,0.0,0.0,,
Saltmätaregatan 1,Villa,Utby,Göteborgs kommun,82.0,6.0,,5400000,2022-08-30,-2.0,65854.0,586.4,82.0,57.7408489,12.0752657
Tredje Långgatan 36,Lägenhet,Linnéstaden,Göteborgs kommun,84.8,3.0,4348.0,4950000,2022-08-30,0.0,58373.0,0.0,0.0,57.6983288,11.9468392
Fiolgatan 2,Lägenhet,Ruddalen,Göteborgs kommun,70.7,3.0,5372.0,2495000,2022-08-30,0.0,35290.0,0.0,0.0,57.661402,11.91417905
Doktor bex gata 3B,Lägenhet,Guldheden,Göteborgs kommun,54.0,2.0,2728.0,2700000,2022-08-30,0.0,50000.0,0.0,0.0,57.6825514,11.974474
Horsikavägen 26,Villa,Donsö,Göteborgs kommun,104.0,5.0,,6500000,2022-08-30,18.0,62500.0,1720.0,65.0,57.5956893,11.7978508
Nordostpassagen 57,Lägenhet,Linné,Göteborgs kommun,39.0,1.0,2616.0,2600000,2022-08-30,-2.0,66667.0,0.0,0.0,57.6929224,11.9473145
Amiralitetsgatan 11A,Lägenhet,Majorna,Göteborgs kommun,53.0,2.0,3054.0,3150000,2022-08-30,-1.0,59434.0,0.0,0.0,57.6965101,11.9336572
Lilla Marconigatan 15,Lägenhet,Västra Frölunda,Göteborgs kommun,65.0,2.0,3503.0,2650000,2022-08-30,4.0,40769.0,0.0,0.0,57.6535912,11.9140302
Astris Gata 64,Lägenhet,Eriksberg,Göteborgs kommun,40.0,1.5,2418.0,2480000,2022-08-30,4.0,62000.0,0.0,0.0,57.6995553,11.9047241
Norra Sälöfjordsgatan 43,Villa,Kyrkbyn,Göteborgs kommun,82.0,6.0,,4310000,2022-08-30,-4.0,52561.0,560.2,0.0,57.7155278,11.902623558276542
Nötväckestupet 5,Villa,Olofstorp,Göteborgs kommun,142.0,8.0,,3510000,2022-08-30,-6.0,24718.0,869.5,0.0,,
Kabelgatan 14,,Lägenhet,Majorna,Göteborgs kommun,53.5,2.0,3887.0,2980000,2022-08-30,0.0,55701.0,0.0,0.0,57.69014735,11.92490369972362
Brunkebergsgatan 3H,Lägenhet,Lunden,Göteborgs kommun,49.0,2.0,2934.0,2520000,2022-08-30,5.0,51429.0,0.0,0.0,57.7119042,12.0025263
Räntmästaregatan 25E,Lägenhet,Lunden,Göteborgs kommun,40.5,2.0,2832.0,2500000,2022-08-30,2.0,61728.0,0.0,0.0,57.7111902,12.0116348
Glimmerstigen 18,Fritidshus,Näset,Göteborgs kommun,30.0,3.0,,2525000,2022-08-30,41.0,84167.0,0.0,0.0,57.612008,11.8883255
Doktor Bex Gata 3B,Lägenhet,Södra Guldheden,Göteborgs kommun,54.0,2.0,3407.0,2950000,2022-08-30,7.0,54630.0,0.0,0.0,57.6825514,11.974474
Rubingatan 29,Lägenhet,Tynnered,Göteborgs kommun,79.0,3.0,4782.0,1995000,2022-08-30,0.0,25253.0,0.0,0.0,57.6439507,11.9008499
Backegårdsgatan 15,Villa,Utby,Göteborgs kommun,95.0,5.0,,5600000,2022-08-30,2.0,58947.0,770.8,67.0,57.7387905,12.0530647
Sofiagatan 46C,Lägenhet,Strömmensberg,Göteborgs kommun,43.9,1.0,2745.0,2020000,2022-08-30,7.0,46014.0,0.0,0.0,57.7200998,12.0196527
Lars Kaggsgatan 28 A,Lägenhet,Gamlestaden,Göteborgs kommun,55.5,2.0,4217.0,1950000,2022-08-29,-2.0,35135.0,0.0,0.0,57.7339341,12.0175986
Jenny Lindsgatan 18,Lägenhet,Lunden,Göteborgs kommun,62.0,2.0,2713.0,3450000,2022-08-29,-1.0,55645.0,0.0,0.0,57.7109657,12.0009975
Briljantgatan 73,Lägenhet,Tynnered,Göteborgs kommun,70.0,3.0,3785.0,1550000,2022-08-29,-11.0,22143.0,0.0,0.0,57.6467834,11.9068939
Sjömilsgatan 2,Lägenhet,Flatås,Göteborgs kommun,76.5,3.0,3971.0,2400000,2022-08-29,-4.0,31373.0,0.0,0.0,57.6609491,11.9276198
Kung Borres väg 32C,Villa,Säve,Göteborgs kommun,129.2,6.0,,1925000,2022-08-29,-68.0,14899.0,1505.0,0.0,57.8002703,11.9260085
Beryllgatan 21,Lägenhet,Tynnered,Göteborgs kommun,96.8,4.0,5884.0,2910000,2022-08-29,1.0,30062.0,0.0,0.0,57.6572567,11.8879756
Kavaljersgatan 14,Lägenhet,Hisings Backa,Göteborgs kommun,90.0,4.0,6187.0,2450000,2022-08-29,3.0,27222.0,0.0,0.0,57.7561837,11.9836669
Lärjeheds fritidsområde stuga nr 30,Fritidshus,Linnarhult,Göteborgs kommun,40.0,3.0,,650000,2022-08-29,18.0,16250.0,700.0,31.0,,
Gröna Gatan 32,Lägenhet,Majorna,Göteborgs kommun,67.4,2.0,4721.0,2700000,2022-08-29,-3.0,40059.0,0.0,0.0,57.6912297,11.9165987
Kärrhöksgatan 5B,Lägenhet,Kålltorp,Göteborgs kommun,52.0,2.0,4145.0,2950000,2022-08-29,4.0,56731.0,0.0,0.0,57.7098179,12.0259437
Lars Kaggsgatan 30F,Lägenhet,Gamlestaden,Göteborgs kommun,39.5,2.0,3267.0,1850000,2022-08-29,-3.0,46835.0,0.0,0.0,57.7342119,12.0190423
Sandbanksvägen 38,Radhus,Skogome,Göteborgs kommun,104.0,4.0,,4200000,2022-08-29,-3.0,40385.0,145.0,0.0,57.7629688,11.9492625
Viktoriagatan 12A,Lägenhet,Vasastaden,Göteborgs kommun,82.0,2.5,2081.0,4975000,2022-08-29,0.0,60671.0,0.0,0.0,57.6999859,11.964514
Lövskogsgatan 11A,Lägenhet,Norra Guldheden,Göteborgs kommun,34.5,1.0,2213.0,2400000,2022-08-29,1.0,69565.0,0.0,0.0,57.6893247,11.9630988
Arsenalsgatan 10B,Lägenhet,Kungshöjd,Göteborgs kommun,51.0,2.0,2368.0,3400000,2022-08-29,-1.0,66667.0,0.0,0.0,57.7016833,11.9587452
Famngatan 16,Lägenhet,Högsbo,Göteborgs kommun,29.0,1.0,1635.0,1675000,2022-08-29,-1.0,57759.0,0.0,0.0,57.6626334,11.9270175
Ostgatan 22,Lägenhet,Kallebäck,Göteborgs kommun,28.8,1.5,2442.0,1850000,2022-08-29,0.0,64236.0,0.0,0.0,57.6836637,12.0097592
Fyrans backe 9A,Villa,Torsland,Göteborgs kommun,240.0,5.0,,14000000,2022-08-29,0.0,58333.0,1021.5,64.0,57.7018037,11.7601085
Tredje Långgatan 32A,Lägenhet,Linnéstaden,Göteborgs kommun,32.0,1.0,1922.0,2500000,2022-08-29,-11.0,78125.0,0.0,0.0,57.6983288,11.9468392
De Geersgatan 22,Lägenhet,Lunden,Göteborgs kommun,54.0,2.0,3618.0,2950000,2022-08-29,2.0,54630.0,0.0,0.0,57.7100599,12.0089685
Tenorgatan 14,Lägenhet,Kaverös,Göteborgs kommun,78.8,3.0,4689.0,2000000,2022-08-29,-9.0,25381.0,0.0,0.0,57.6637433,11.9182272
Arvesgärde 13,Lägenhet,Tuve,Göteborgs kommun,40.5,1.0,2859.0,1550000,2022-08-29,0.0,38272.0,0.0,0.0,57.7521751,11.9247459
Toleredsgatan 28B,Lägenhet,Centrala Hisingen,Göteborgs kommun,50.0,2.0,3962.0,1985000,2022-08-29,4.0,39700.0,0.0,0.0,57.7319136,11.9241047
Furuhöjdsbacken 4,Villa,Säve,Göteborgs kommun,124.0,5.0,,5000000,2022-08-28,-6.0,40323.0,1892.2,0.0,57.8151579,11.9100594
Sergelsgatan 4A,Lägenhet,Lunden,Göteborgs kommun,37.0,1.0,2616.0,2150000,2022-08-28,-1.0,58108.0,0.0,0.0,57.7103795,12.0125639
Gropens Lillgata 32,Lägenhet,Hammarkullen,Göteborgs kommun,55.0,2.0,3162.0,1400000,2022-08-28,8.0,25455.0,0.0,0.0,,
Såggatan 35G,Lägenhet,Majorna,Göteborgs kommun,40.0,2.0,2547.0,2330000,2022-08-28,6.0,58250.0,0.0,0.0,57.6931306,11.9262762
Fritiof Anderssons gata 9,Lägenhet,Eriksberg,Göteborgs kommun,81.6,3.0,3996.0,4150000,2022-08-28,-2.0,50858.0,0.0,0.0,57.7000165,11.9059341
Walter Bengtssons Gata 20,Lägenhet,Majorna,Göteborgs kommun,49.5,2.0,2666.0,2950000,2022-08-28,0.0,59596.0,0.0,0.0,57.6861244,11.9096076
Rundbäcksgatan 3,Lägenhet,Centrala Hisingen,Göteborgs kommun,38.5,1.5,2263.0,1895000,2022-08-28,0.0,49221.0,0.0,0.0,57.7230724,11.9485768
Marklandsgatan 69,Lägenhet,Högsbo,Göteborgs kommun,28.0,1.0,2129.0,1700000,2022-08-27,3.0,60714.0,0.0,0.0,57.6686916,11.9349405
Kärrhöksgatan 9B,Lägenhet,Kålltorp,Göteborgs kommun,84.0,4.0,5907.0,4800000,2022-08-27,-4.0,57143.0,0.0,0.0,57.71044,12.0265991
Knapegårdsvägen 11,Radhus,Sisjön,Göteborgs kommun,134.0,6.0,3797.0,5600000,2022-08-27,-7.0,41791.0,0.0,0.0,57.6380554,11.948388045431534
Norra Liden 8,Lägenhet,Kungshöjd,Göteborgs kommun,85.0,3.0,4442.0,4795000,2022-08-27,0.0,56412.0,0.0,0.0,57.7045304,11.9582763
Sankt Jörgens väg 28 A,Lägenhet,Sankt Jörgen,Göteborgs kommun,40.0,1.0,2786.0,1700000,2022-08-27,10.0,42500.0,0.0,0.0,57.7511443,11.9527454
Skomakaregården 5,Villa,Torslanda,Göteborgs kommun,172.0,6.0,,7300000,2022-08-27,-3.0,42442.0,1013.7,0.0,57.7525809,11.8280777
Krokegatan 5,Lägenhet,Masthugget,Göteborgs kommun,45.0,2.0,2612.0,3550000,2022-08-27,0.0,78889.0,0.0,0.0,57.6953605,11.9374014
Gamlestads Brygga 17,Lägenhet,Gamlestaden,Göteborgs kommun,73.0,3.0,3688.0,4450000,2022-08-27,6.0,60959.0,0.0,0.0,57.7276513,12.0066592
Räntmästaregatan 13A,Lägenhet,Lunden,Göteborgs kommun,62.0,2.0,3236.0,2850000,2022-08-27,2.0,45968.0,0.0,0.0,57.7126317,12.0103312
Rymdvågsgatan 7,Villa,Järnbrott,Göteborgs kommun,105.0,6.0,,6150000,2022-08-27,-2.0,58571.0,439.6,75.0,57.6521431,11.92775065
Beryllgatan 45,Lägenhet,Tynnered,Göteborgs kommun,47.0,1.0,2837.0,1830000,2022-08-26,-4.0,38936.0,0.0,0.0,57.6567926,11.8866759
Bratteråsgatan 50,,Lägenhet,Eriksberg,Göteborgs kommun,69.0,2.0,3751.0,3550000,2022-08-26,0.0,51449.0,0.0,0.0,57.7049651,11.9136668
Tunnlandsgatan 20,Lägenhet,Kaverös,Göteborgs kommun,59.5,2.0,2504.0,2200000,2022-08-26,0.0,36975.0,0.0,0.0,57.6645595,11.9212623
Gösta Andrées Gata 6,Lägenhet,Torslanda,Göteborgs kommun,80.5,3.0,5333.0,3695000,2022-08-26,3.0,45901.0,0.0,0.0,57.7103662,11.7723242
Klövervallsgatan 1,Lägenhet,Centrala Hisingen,Göteborgs kommun,115.0,5.0,5802.0,4900000,2022-08-26,,42609.0,0.0,0.0,57.7281376,11.9261779
Aprikosgatan 19,Radhus,Bratthammar,Göteborgs kommun,147.0,5.0,,6225000,2022-08-26,0.0,42347.0,168.6,11.0,57.648532,11.8728843
Smörgatan 104,Lägenhet,Kallebäck,Göteborgs kommun,90.1,3.0,4967.0,4120000,2022-08-26,-4.0,45727.0,0.0,0.0,57.6832301,12.012026249360517
Linnégatan 45,Lägenhet,Linnéstaden,Göteborgs kommun,67.0,3.0,3422.0,4200000,2022-08-26,5.0,62687.0,0.0,0.0,57.693885,11.9519755
Oktettgången 50   Säve,Fritidshus,Säve,Göteborgs kommun,32.0,2.0,,1250000,2022-08-26,9.0,39062.0,200.0,0.0,57.8221711,11.8970045
Mesanvägen 39,Villa,Torslanda,Göteborgs kommun,95.0,3.0,,5100000,2022-08-26,-7.0,53684.0,558.0,0.0,57.7083884,11.7670094
Bäckebolsängen 26,Lägenhet,Hisings Backa,Göteborgs kommun,66.0,2.0,4829.0,1300000,2022-08-26,-10.0,19697.0,0.0,0.0,57.7541688,11.9881604
Nobelgatan 25D,Lägenhet,Lunden,Göteborgs kommun,81.0,3.0,5463.0,4200000,2022-08-26,-1.0,51852.0,0.0,0.0,57.7135045,12.0123894
Gulsporregången 249,Fritidshus,Välenkolonin nedre området,Göteborgs kommun,35.0,2.0,,1175000,2022-08-26,-8.0,33571.0,280.0,0.0,57.636402,11.9165124
Övralidsgatan 11,Lägenhet,Hisings Backa,Göteborgs kommun,91.0,4.0,6430.0,2340000,2022-08-26,2.0,25714.0,0.0,0.0,57.7543682,11.975449
Rositas gata 12,Radhus,Eriksberg,Göteborgs kommun,136.0,5.0,,8200000,2022-08-26,0.0,60294.0,154.0,10.0,57.6985388,11.903468
Tenorgatan 12,Lägenhet,Kaverös,Göteborgs kommun,42.5,1.0,2864.0,1580000,2022-08-26,-4.0,37176.0,0.0,0.0,57.6639043,11.9181626
Gröna gatan 47,Lägenhet,Majorna,Göteborgs kommun,41.8,2.0,2736.0,2350000,2022-08-26,7.0,56220.0,0.0,0.0,57.6921278,11.9169422
Alfhemsgatan 6,Lägenhet,Linnéstaden,Göteborgs kommun,74.0,2.5,3131.0,4750000,2022-08-26,10.0,64189.0,0.0,0.0,57.6919401,11.950196
Ångaren Indias Gata 7,Lägenhet,Sannegården,Göteborgs kommun,45.0,2.0,3075.0,2950000,2022-08-26,6.0,65556.0,0.0,0.0,57.7069258,11.9240257
Sankt Olofsgatan 18,Villa,Centrala Hisingen Tolered,Göteborgs kommun,90.0,5.0,,5120000,2022-08-26,5.0,56889.0,451.0,50.0,57.72968065,11.910162312234045
Lantmilsgatan 34,Lägenhet,Kaverös,Göteborgs kommun,73.5,3.0,4675.0,2595000,2022-08-26,0.0,35306.0,0.0,0.0,57.6648055,11.9255652
Solventilsgatan 16,Lägenhet,Kvillebäcken,Göteborgs kommun,55.0,2.0,2733.0,2850000,2022-08-26,,51818.0,0.0,0.0,57.7223859,11.9487387
Kungälvsgatan 3B,Lägenhet,Bagaregården,Göteborgs kommun,58.0,2.0,2619.0,4000000,2022-08-26,8.0,68966.0,0.0,0.0,57.718889,12.0067333
Flyghamnsvägen 27D,Lägenhet,Torslanda,Göteborgs kommun,86.0,4.0,4081.0,4265000,2022-08-26,-3.0,49593.0,0.0,0.0,57.7022183,11.777105
Noleredsvägen 15D (Lgh 1203),Lägenhet,Torslanda,Göteborgs kommun,62.0,2.0,3511.0,2150000,2022-08-26,0.0,34677.0,0.0,0.0,,
Legendgatan 112,Radhus,Backa,Göteborgs kommun,122.0,5.0,,3895000,2022-08-26,0.0,31926.0,174.2,0.0,57.7415954,11.9838802
Kofferdalsvägen 24A,Lägenhet,Billdal,Göteborgs kommun,82.7,3.0,4464.0,4475000,2022-08-26,0.0,54111.0,0.0,0.0,57.5892645,11.9299571
Vädursgatan 3,Lägenhet,Gårda,Göteborgs kommun,28.0,1.5,1683.0,2030000,2022-08-26,2.0,72500.0,0.0,0.0,57.7032715,11.9923666
Brunstorps by 16,Lägenhet,Säve,Göteborgs kommun,75.0,3.0,5306.0,2775000,2022-08-26,11.0,37000.0,0.0,0.0,57.8052458,11.9081309
Träringen 41,Lägenhet,Björkekärr,Göteborgs kommun,53.5,2.0,3722.0,2450000,2022-08-26,0.0,45794.0,0.0,0.0,57.7134475,12.0526615
Fridkullagatan 17A,Lägenhet,Johanneberg,Göteborgs kommun,55.0,2.0,3427.0,2740000,2022-08-26,-2.0,49818.0,0.0,0.0,57.6835143,11.9863818
Övre Djupedalsgatan 11D, lgh 4,Lägenhet,Linnéstaden,Göteborgs kommun,21.5,1.0,1235.0,2250000,2022-08-26,-5.0,104651.0,0.0,0.0,,
Haga Kyrkogata 20C,Lägenhet,Vasastaden,Göteborgs kommun,37.0,1.0,1118.0,3250000,2022-08-26,0.0,87838.0,0.0,0.0,57.6983235,11.9629046
Södra Viktoriagatan 31,Lägenhet,Vasastaden,Göteborgs kommun,31.8,1.0,2199.0,2450000,2022-08-26,0.0,77044.0,0.0,0.0,57.6937774,11.966752
Korsåsgatan 30,Radhus,Korsåsen,Göteborgs kommun,116.0,4.0,,4820000,2022-08-26,3.0,41552.0,205.7,10.0,57.6406695,11.9082448
Borstbindaregatan 1,Lägenhet,Centrala Hisingen,Göteborgs kommun,58.5,2.0,3532.0,2750000,2022-08-26,2.0,47009.0,0.0,0.0,57.72124115,11.948579794393307
Hults gata 71,Villa,Hult,Göteborgs kommun,166.0,4.0,,7300000,2022-08-26,1.0,43976.0,847.0,0.0,57.63839,11.929882900000004
Nimbusgatan 4,Lägenhet,Eriksberg,Göteborgs kommun,55.0,2.0,3062.0,4800000,2022-08-26,4.0,87273.0,0.0,0.0,57.7023284,11.9190945
Gibraltargatan 56,Lägenhet,Johanneberg,Göteborgs kommun,80.0,3.0,3843.0,4300000,2022-08-26,3.0,53750.0,0.0,0.0,57.6873981,11.9827833
Kolonigatan 9 A,Lägenhet,Landala Egnahem,Göteborgs kommun,50.0,2.0,3240.0,3000000,2022-08-26,5.0,60000.0,0.0,0.0,57.6865737,11.9754375
Älghagsgatan 3 B,Lägenhet,Gamla Masthugget,Göteborgs kommun,37.6,2.0,2594.0,2700000,2022-08-26,,71809.0,0.0,0.0,57.6930228,11.9384609
Västes gata 84,Villa,Fiskebäck,Göteborgs kommun,95.0,4.0,,4770000,2022-08-26,6.0,50211.0,201.2,12.0,57.6571973,11.8790843
Gibraltargatan 56,Lägenhet,Johanneberg,Göteborgs kommun,80.0,3.0,3843.0,4550000,2022-08-26,6.0,56875.0,0.0,0.0,57.6873981,11.9827833
Guldringen 17,Lägenhet,Tynnered,Göteborgs kommun,100.5,4.0,6773.0,3250000,2022-08-25,5.0,32338.0,0.0,0.0,57.6589361,11.8913428
Bandtraktorgatan 1,Lägenhet,Angered,Göteborgs kommun,31.0,1.0,1947.0,1150000,2022-08-25,0.0,37097.0,0.0,0.0,57.7963013,12.045988798658318
Smörslottsgatan 22,Lägenhet,Björkekärr,Göteborgs kommun,77.0,3.0,3546.0,4005000,2022-08-25,5.0,52013.0,0.0,0.0,57.7199982,12.0579394
Hagens stationsväg 6,Lägenhet,Hagen,Göteborgs kommun,71.0,3.0,3745.0,3920000,2022-08-25,1.0,55211.0,0.0,0.0,57.6783536,11.887442892951055
Fagottgatan 6,Lägenhet,Ruddalen,Göteborgs kommun,59.5,2.0,3302.0,2020000,2022-08-25,4.0,33950.0,0.0,0.0,57.6593794,11.9173649
Smörgatan 82,Lägenhet,Kallebäck,Göteborgs kommun,54.0,2.0,3381.0,2520000,2022-08-25,7.0,46667.0,0.0,0.0,57.68159645,12.01291365
Nattviolsgatan 4,Villa,Kvillebäcken,Göteborgs kommun,85.0,4.0,,4850000,2022-08-25,0.0,57059.0,494.3,77.0,57.724919,11.94084335
Nordenskiöldsgatan 30A,Lägenhet,Linnéstaden,Göteborgs kommun,50.0,2.0,2724.0,4200000,2022-08-25,1.0,84000.0,0.0,0.0,57.692554,11.9485939
Stafettgatan 4C,Lägenhet,Lunden,Göteborgs kommun,35.0,1.0,2477.0,2095000,2022-08-25,0.0,59857.0,0.0,0.0,57.7077795,12.0006394
Raketgatan 13,Lägenhet,Norra Guldheden,Göteborgs kommun,96.0,3.0,7359.0,5270000,2022-08-25,3.0,54896.0,0.0,0.0,57.6916427,11.9644869
Carl Larssonsgatan 6D,Lägenhet,Örgryte Bö,Göteborgs kommun,35.5,1.0,2706.0,2450000,2022-08-25,0.0,69014.0,0.0,0.0,57.7030902,12.0190591
Örnehufvudsgatan 17,Lägenhet,Johanneberg,Göteborgs kommun,37.0,1.5,2632.0,2460000,2022-08-25,5.0,66486.0,0.0,0.0,57.6868327,11.9841505
Carlandersplatsen 2,Lägenhet,Lorensberg,Göteborgs kommun,42.0,1.5,1693.0,3050000,2022-08-25,2.0,72619.0,0.0,0.0,57.6935242,11.9867533
Trädgårdsbacken 3,Tomt,Angered,Göteborgs kommun,951.0,,,1580000,2022-08-25,6.0,1661.0,0.0,0.0,57.805085,12.0454989
Adler salvius gata 7,Lägenhet,Prippska Tomten,Göteborgs kommun,71.6,3.0,3871.0,4200000,2022-08-25,6.0,58659.0,0.0,0.0,57.7085166,11.9807939
Umbragatan 16,Radhus,Åkered,Göteborgs kommun,121.0,5.0,,5600000,2022-08-25,-6.0,46281.0,147.0,0.0,57.6339342,11.8909029
Lillekärr södra 66,Villa,Hisings Kärra,Göteborgs kommun,159.0,6.0,,5625000,2022-08-25,8.0,35377.0,376.2,0.0,57.7886364,11.98743660201067
Sulitelmagatan 2B,Lägenhet,Strömmensberg,Göteborgs kommun,37.0,1.0,2017.0,1990000,2022-08-25,0.0,53784.0,0.0,0.0,57.7187091,12.0167592
Godhemsgatan 5,Lägenhet,Majorna,Göteborgs kommun,55.9,2.0,2807.0,4320000,2022-08-25,15.0,77281.0,0.0,0.0,57.6875241,11.9278995
Sextettgången Gunnesby Koloniträdgårdar Lott 46,Fritidshus,Säve,Göteborgs kommun,38.0,2.0,,850000,2022-08-25,-5.0,22368.0,209.0,0.0,,
Tångedal 53,Radhus,Tuve,Göteborgs kommun,112.0,4.0,,4450000,2022-08-25,12.0,39732.0,342.2,0.0,57.76234835,11.924998181010912
Storhöjdsgatan 6B,Lägenhet,Strömmensberg,Göteborgs kommun,35.0,1.0,2579.0,2080000,2022-08-25,4.0,59429.0,0.0,0.0,57.719529,12.0173167
Övre Hallegatan 8,Lägenhet,Centrala Hisingen,Göteborgs kommun,82.3,4.0,6105.0,3600000,2022-08-25,26.0,43742.0,0.0,0.0,57.7183072,11.9381581
Termometergatan 46,Villa,Länsmansgården,Göteborgs kommun,125.0,5.0,4611.0,4680000,2022-08-25,4.0,37440.0,0.0,0.0,57.7356042,11.8874082
Munkebäcksgatan 34B,Lägenhet,Kålltorp,Göteborgs kommun,52.0,2.0,3013.0,3000000,2022-08-25,2.0,57692.0,0.0,0.0,57.7129774,12.0242618
Stabbegatan 30,Lägenhet,Björkekärr,Göteborgs kommun,65.0,3.0,4663.0,3550000,2022-08-25,,54615.0,0.0,0.0,57.7176872,12.0476979
Stampgatan 58C,Lägenhet,Stampen,Göteborgs kommun,83.0,3.0,3492.0,3925000,2022-08-25,1.0,47289.0,0.0,0.0,57.7091255,11.9872229
Alfhemsgatan 4,Lägenhet,Linnéstaden,Göteborgs kommun,66.0,2.0,3131.0,6000000,2022-08-25,13.0,90909.0,0.0,0.0,57.6922676,11.9504185
Skytteskogsgatan 22,Lägenhet,Kungsladugård,Göteborgs kommun,50.0,2.0,4054.0,2950000,2022-08-25,14.0,59000.0,0.0,0.0,57.6812705,11.9318669
Svarte filips gata 29,Villa,Angered,Göteborgs kommun,132.0,6.0,5929.0,3080000,2022-08-25,7.0,23333.0,0.0,0.0,57.8140032,12.0333143
Mimergatan 4,Lägenhet,Eriksberg,Göteborgs kommun,65.3,3.0,2654.0,5475000,2022-08-25,15.0,83844.0,0.0,0.0,57.7021402,11.9179698
Lotta svärdsgatan 4 B,Lägenhet,Gamlestaden,Göteborgs kommun,35.0,1.0,2805.0,1660000,2022-08-25,4.0,47429.0,0.0,0.0,57.7339899,12.0196621
Kastellgatan 6 B,Lägenhet,Linnéstaden,Göteborgs kommun,66.0,2.0,3001.0,5000000,2022-08-25,,75758.0,0.0,0.0,57.6930492,11.9559708
Lådämnesgatan 3,Lägenhet,Björkekärr,Göteborgs kommun,66.8,3.0,2937.0,3100000,2022-08-24,-3.0,46407.0,0.0,0.0,57.7161172,12.0521665
Skogsrydsgatan 11,Villa,Långedrag,Göteborgs kommun,158.0,8.0,,9300000,2022-08-24,16.0,58861.0,1125.0,103.0,57.67495865,11.877227507177263
Befälsgatan 8,Lägenhet,Kviberg,Göteborgs kommun,53.0,2.0,1862.0,1850000,2022-08-24,-2.0,34906.0,0.0,0.0,57.7420971,12.0271567
Bratteråsbacken 35,Lägenhet,Eriksberg,Göteborgs kommun,140.0,5.0,7351.0,9500000,2022-08-24,-5.0,67857.0,0.0,0.0,57.70258325,11.915994550000002
Guldmyntsgatan 36,Lägenhet,Högsbo,Göteborgs kommun,77.5,3.0,3950.0,3700000,2022-08-24,0.0,47742.0,0.0,0.0,57.6736378,11.9257448
Prilyckegatan 107,Lägenhet,Hisings Kärra,Göteborgs kommun,75.5,3.0,5179.0,2050000,2022-08-24,0.0,27152.0,0.0,0.0,57.7906327,11.9837573
Prilyckegatan 103,Lägenhet,Hisings Kärra,Göteborgs kommun,62.0,2.0,3997.0,1660000,2022-08-24,19.0,26774.0,0.0,0.0,57.7926191,11.9853346
Erik Dahlbergsgatan 8B,Lägenhet,Vasastaden,Göteborgs kommun,65.0,2.5,2230.0,4525000,2022-08-24,-4.0,69615.0,0.0,0.0,57.6953732,11.9706476
Lådämnesgatan 16,Lägenhet,Björkekärr,Göteborgs kommun,54.0,2.0,3666.0,2450000,2022-08-24,,45370.0,0.0,0.0,57.716398,12.0517199
Tredje Långgatan 38,Lägenhet,Linné,Göteborgs kommun,61.1,2.5,3238.0,4200000,2022-08-24,9.0,68740.0,0.0,0.0,57.6983288,11.9468392
Fruktträdsgatan 6,Lägenhet,Hildedal,Göteborgs kommun,57.0,2.0,3930.0,2410000,2022-08-24,3.0,42281.0,0.0,0.0,,
Linnégatan 37,Lägenhet,Linné,Göteborgs kommun,45.0,2.0,2666.0,3095000,2022-08-24,0.0,68778.0,0.0,0.0,57.6945489,11.9517334
Glöstorps Röseväg 6,Lägenhet,Tuve,Göteborgs kommun,84.5,3.0,4766.0,3100000,2022-08-24,-2.0,36686.0,0.0,0.0,57.7526268,11.915956534864234
Förtroligheten 34A,Villa,Örgryte,Göteborgs kommun,170.0,9.0,,11200000,2022-08-24,-6.0,65882.0,576.3,85.0,57.6899708,12.0121011
Lantmätaregatan 15C,Lägenhet,Göteborg,Göteborgs kommun,56.1,2.0,3164.0,2150000,2022-08-24,-2.0,38324.0,0.0,0.0,57.7224524,11.9429628
Norra Fjädermolnsgatan 42,Lägenhet,Länsmansgården,Göteborgs kommun,94.0,4.0,5653.0,3000000,2022-08-24,0.0,31915.0,0.0,0.0,57.7354322,11.8976676
Skrattmåsgången 38,Radhus,Hagen,Göteborgs kommun,168.0,6.0,,7650000,2022-08-24,-4.0,45536.0,169.0,0.0,57.6732728,11.8867473
Blåsutgatan 5,Lägenhet,Majorna,Göteborgs kommun,34.7,1.0,3346.0,2100000,2022-08-24,6.0,60519.0,0.0,0.0,57.6929619,11.9214006
Virveltorget 6,Lägenhet,Centrala Hisingen,Göteborgs kommun,35.0,1.0,2494.0,1850000,2022-08-24,-2.0,52857.0,0.0,0.0,,
Falkenbergsgatan 4A,Lägenhet,Johanneberg,Göteborgs kommun,55.0,2.0,2942.0,3200000,2022-08-24,2.0,58182.0,0.0,0.0,57.6809197,11.9996016
Ångaren Ernas gata 1,Lägenhet,Sannegården,Göteborgs kommun,62.0,2.0,3895.0,3300000,2022-08-24,-3.0,53226.0,0.0,0.0,57.7076776,11.9245543
Arsenalsgatan 8A,Lägenhet,Kungshöjd,Göteborgs kommun,98.0,2.0,3554.0,8200000,2022-08-24,21.0,83673.0,0.0,0.0,57.7016833,11.9587452
Gamla Rambergsvägen 28, uthyrning tillåts!,Lägenhet,Ramberget,Göteborgs kommun,35.0,1.0,1828.0,1930000,2022-08-24,-3.0,55143.0,0.0,0.0,,
Sandhamnsgatan 63,Radhus,Näset,Göteborgs kommun,115.0,5.0,,5150000,2022-08-24,3.0,44783.0,236.6,0.0,57.6255071,11.9039648
Sjöbackevägen 12,Lägenhet,Billdal,Göteborgs kommun,84.0,3.0,4436.0,3775000,2022-08-24,-2.0,44940.0,0.0,0.0,57.5677846,11.9400838
Fräntorpsgatan 84,Lägenhet,Fräntorp,Göteborgs kommun,86.0,4.0,5126.0,3850000,2022-08-24,-3.0,44767.0,0.0,0.0,57.7265155,12.0518353
Ostindiefararen 19,Lägenhet,Eriksberg,Göteborgs kommun,59.5,2.0,2906.0,3470000,2022-08-24,2.0,58319.0,0.0,0.0,57.6985431,11.9096551
Vaktmästaregången 16,Lägenhet,Masthugget,Göteborgs kommun,44.0,1.0,2753.0,2550000,2022-08-24,4.0,57955.0,0.0,0.0,57.6961519,11.9391696
Guldpokalsgatan 8B,Lägenhet,Centrala Hisingen,Göteborgs kommun,35.5,1.0,2500.0,1340000,2022-08-24,-4.0,37746.0,0.0,0.0,57.7203811,11.9300351
Kamomillvägen 23,Lägenhet,Hildedal,Göteborgs kommun,62.0,2.0,4095.0,2840000,2022-08-24,-2.0,45806.0,0.0,0.0,57.7323773,11.9418838
Nordhemsgatan 48,Lägenhet,Linnéstaden,Göteborgs kommun,41.0,2.0,3279.0,2705000,2022-08-24,-3.0,65976.0,0.0,0.0,57.6956596,11.9507456
Karl Staaffsgatan 18C,Lägenhet,Slätta Damm,Göteborgs kommun,54.0,2.0,3322.0,1825000,2022-08-24,2.0,33796.0,0.0,0.0,57.7307194,11.9234427
Transistorgatan 21,Lägenhet,Järnbrott,Göteborgs kommun,82.0,3.0,3523.0,4110000,2022-08-24,8.0,50122.0,0.0,0.0,57.6571649,11.9201999
Sixten Camps Gata 4,Lägenhet,Nya Gårda,Göteborgs kommun,76.0,3.0,3377.0,4320000,2022-08-24,1.0,56842.0,0.0,0.0,57.7110077,11.9934837
Sveagatan 23B,Lägenhet,Linnéstaden,Göteborgs kommun,103.0,3.5,6165.0,5995000,2022-08-24,0.0,58204.0,0.0,0.0,57.6927605,11.9543018
Rubingatan 20,Lägenhet,Tynnered,Göteborgs kommun,44.5,1.0,2801.0,1650000,2022-08-24,0.0,37079.0,0.0,0.0,57.6451762,11.9007352
Sjöbacken 1,Lägenhet,Billdal,Göteborgs kommun,84.0,3.0,6264.0,3200000,2022-08-24,0.0,38095.0,0.0,0.0,57.56898725,11.94134735271739
Sörhallstorget 21,Lägenhet,Eriksberg,Göteborgs kommun,64.0,2.0,3381.0,3450000,2022-08-24,0.0,53906.0,0.0,0.0,57.7024922,11.9209561
Ulfsparregatan 9A,Lägenhet,Lunden,Göteborgs kommun,48.5,2.0,3432.0,2840000,2022-08-24,2.0,58557.0,0.0,0.0,57.7108956,12.0137724
Bratteråsgatan 56,Lägenhet,Eriksberg,Göteborgs kommun,79.0,3.0,3934.0,4100000,2022-08-24,-2.0,51899.0,0.0,0.0,57.7049651,11.9136668
Arvesgärde 11,Lägenhet,Tuve,Göteborgs kommun,62.0,2.0,4141.0,1800000,2022-08-24,-3.0,29032.0,0.0,0.0,57.7525157,11.9241558
Sergelsgatan 4F,Lägenhet,Lunden,Göteborgs kommun,37.0,1.0,2844.0,2300000,2022-08-24,7.0,62162.0,0.0,0.0,57.7099791,12.0122956
Klarinettgatan 11,Lägenhet,Västra Frölunda,Göteborgs kommun,53.5,2.0,3372.0,1950000,2022-08-24,-2.0,36449.0,0.0,0.0,57.6619689,11.9164904
Ernst Torulfsgatan 21 B,Lägenhet,Munkebäck,Göteborgs kommun,49.5,2.0,4136.0,2300000,2022-08-24,2.0,46465.0,0.0,0.0,57.7222332,12.0314995
Såggatan 50 A,Lägenhet,Majorna,Göteborgs kommun,74.0,3.0,4048.0,3850000,2022-08-24,7.0,52027.0,0.0,0.0,57.6911948,11.9298473
Banehagsgatan 16,Lägenhet,Klippan,Göteborgs kommun,86.7,4.0,4349.0,5200000,2022-08-23,0.0,59977.0,0.0,0.0,57.6884008,11.9091661
Famngatan 10,Lägenhet,Högsbo,Göteborgs kommun,29.0,1.0,1635.0,1575000,2022-08-23,0.0,54310.0,0.0,0.0,57.6626334,11.9270175
Värmlandsgatan 24D,Lägenhet,Linné,Göteborgs kommun,67.0,3.0,3950.0,4350000,2022-08-23,9.0,64925.0,0.0,0.0,57.6995421,11.9462267
Ahrenbergsgatan 24A,Lägenhet,Munkebäck,Göteborgs kommun,50.0,2.0,3302.0,2150000,2022-08-23,-9.0,43000.0,0.0,0.0,57.723511,12.0316325
Gyllenstensgatan 25,Lägenhet,Munkebäck,Göteborgs kommun,45.0,2.0,2397.0,2690000,2022-08-23,0.0,59778.0,0.0,0.0,57.7184437,12.0284145
Vintervädersgatan 13,Lägenhet,Biskopsgården,Göteborgs kommun,22.1,1.0,1502.0,810000,2022-08-23,-5.0,36652.0,0.0,0.0,57.7254096,11.8959935
Turkosgatan 28,Lägenhet,Tynnered,Göteborgs kommun,77.8,3.0,4687.0,2150000,2022-08-23,13.0,27635.0,0.0,0.0,57.6489666,11.8973663
Artillerigatan 34,Lägenhet,Gamlestaden,Göteborgs kommun,75.0,3.0,4449.0,3590000,2022-08-23,0.0,47867.0,0.0,0.0,57.7304065,12.0173952
Blåsutgatan 6,Lägenhet,Majorna,Göteborgs kommun,82.0,3.0,5702.0,3725000,2022-08-23,1.0,45427.0,0.0,0.0,57.6920272,11.9214064
Sofiagatan 62G,Lägenhet,Strömmensber,Göteborgs kommun,45.9,2.0,2878.0,2600000,2022-08-23,4.0,56645.0,0.0,0.0,57.7212807,12.021064
Kobergsgatan 4,Lägenhet,Strömmensberg,Göteborgs kommun,40.5,2.0,2890.0,2250000,2022-08-23,-6.0,55556.0,0.0,0.0,57.7205761,12.0172505
Barken Beatrices gata 32,Lägenhet,Sannegårdshamnen,Göteborgs kommun,73.5,2.0,4821.0,4600000,2022-08-23,10.0,62585.0,0.0,0.0,57.7052624,11.9237457
Tomtegatan 3,Lägenhet,Gårda,Göteborgs kommun,58.0,2.0,5889.0,1800000,2022-08-23,0.0,31034.0,0.0,0.0,57.7014843,11.9936005
Gibraltargatan 66,Lägenhet,Johanneberg,Göteborgs kommun,41.0,1.0,2401.0,2355000,2022-08-23,-5.0,57439.0,0.0,0.0,57.6863722,11.9836748
Hagens Stationsväg 6,Lägenhet,Hagen,Göteborgs kommun,56.0,2.0,2954.0,3150000,2022-08-23,7.0,56250.0,0.0,0.0,57.6783536,11.887442892951055
Sjömilsgatan 5,Lägenhet,Flatås,Göteborgs kommun,97.5,4.0,5034.0,3200000,2022-08-23,-4.0,32821.0,0.0,0.0,57.6612241,11.9285298
Värslevägen 65,Lägenhet,Askim,Göteborgs kommun,75.6,3.0,4828.0,2860000,2022-08-23,0.0,37831.0,0.0,0.0,57.6327618,11.9336358
Regnvädersgatan 10,Lägenhet,Biskopsgården,Göteborgs kommun,60.0,2.0,3374.0,1100000,2022-08-23,0.0,18333.0,0.0,0.0,57.7143513,11.8896553
Ångaren Ernas Gata 12,Lägenhet,Sannegårdshamnen,Göteborgs kommun,129.0,4.0,5490.0,8000000,2022-08-23,7.0,62016.0,0.0,0.0,57.70752,11.925719
Thorburnsgatan 2B,Lägenhet,Almeda,Göteborgs kommun,51.0,2.0,3041.0,2680000,2022-08-23,,52549.0,0.0,0.0,57.6854543,11.9961973
Övre Olskroksgatan 30,Lägenhet,Bagaregården,Göteborgs kommun,56.0,2.0,3277.0,2900000,2022-08-23,0.0,51786.0,0.0,0.0,57.7198793,12.003439
Norra Skeppspromenaden 2,Lägenhet,Eriksberg,Göteborgs kommun,74.0,2.0,4179.0,3995000,2022-08-23,9.0,53986.0,0.0,0.0,57.7027818,11.9201714
Lillekärr Norra 2,Lägenhet,Hisings Kärra,Göteborgs kommun,64.4,2.0,4216.0,1850000,2022-08-23,3.0,28727.0,0.0,0.0,57.7971667,11.9901499
Cinnobergatan 35,Radhus,Näset,Göteborgs kommun,120.0,5.0,,5000000,2022-08-23,-6.0,41667.0,147.0,0.0,57.6300396,11.8961933
Cypressgatan 5,Villa,Långedrag,Göteborgs kommun,184.0,5.0,,8700000,2022-08-23,-12.0,47283.0,1316.9,24.0,57.67224925,11.87747985
Slottsskogsgatan 113,Lägenhet,Majorna,Göteborgs kommun,37.4,1.0,2986.0,2190000,2022-08-23,0.0,58556.0,0.0,0.0,57.6814961,11.9338558
Skytteskogsgatan 18,Lägenhet,Kungsladugård,Göteborgs kommun,37.4,2.0,3011.0,2350000,2022-08-23,12.0,62834.0,0.0,0.0,57.6814623,11.9323194
Lodjursstråket 1 (Karlatornet),Lägenhet,Lindholmen,Göteborgs kommun,79.0,3.0,5368.0,6100000,2022-08-22,-6.0,77215.0,0.0,0.0,,
Trädgårdsgärdet 202,Lägenhet,Angered,Göteborgs kommun,81.4,3.0,5584.0,1300000,2022-08-22,0.0,15971.0,0.0,0.0,57.80363815,12.05194165647002
Södra vägen 68 A,Lägenhet,Johanneberg,Göteborgs kommun,36.0,1.0,2661.0,2305000,2022-08-22,1.0,64028.0,0.0,0.0,57.6931761,11.990867519483947
Seglaregatan 21,Lägenhet,Majorna,Göteborgs kommun,69.7,3.0,5895.0,3000000,2022-08-22,8.0,43042.0,0.0,0.0,57.6908937,11.9184059
Marklandsgatan 57,Lägenhet,Högsbo,Göteborgs kommun,57.5,2.0,3305.0,2100000,2022-08-22,-11.0,36522.0,0.0,0.0,57.669671,11.9359391
Sillviks Havskoloni 124,Fritidshus,Torslanda,Göteborgs kommun,47.0,3.0,,2300000,2022-08-22,15.0,48936.0,0.0,8.0,57.7407305,11.7423348
Långängen 7,Lägenhet,Centrala Hisingen,Göteborgs kommun,58.0,2.0,3100.0,2650000,2022-08-22,,45690.0,0.0,0.0,57.7219712,11.9464471
Drakblommegatan 18,Radhus,Centrala Hisingen,Göteborgs kommun,94.0,5.0,,4200000,2022-08-22,5.0,44681.0,165.0,0.0,57.7266992,11.9369713
Orkestergatan 15,Lägenhet,Kaverös,Göteborgs kommun,81.0,3.0,2740.0,3250000,2022-08-22,9.0,40123.0,0.0,0.0,57.6640116,11.9228093
Helmutsrogatan 5B,Lägenhet,Johanneberg,Göteborgs kommun,37.0,1.0,2414.0,2100000,2022-08-22,-2.0,56757.0,0.0,0.0,57.6844303,11.9986194
Sävsparvgången 125,Fritidshus,Askim,Göteborgs kommun,35.0,2.0,,1460000,2022-08-22,8.0,41714.0,300.0,0.0,,
Ahrenbergsgatan 4D,Lägenhet,Munkebäck,Göteborgs kommun,48.5,2.0,3583.0,2150000,2022-08-22,-1.0,44330.0,0.0,0.0,57.7226032,12.0257455
Torkelsgatan 9,Lägenhet,Lunden,Göteborgs kommun,62.0,3.0,3802.0,3900000,2022-08-22,3.0,62903.0,0.0,0.0,57.7117216,12.0084841
Kvillegatan 7,Lägenhet,Porslinsfabriken,Göteborgs kommun,58.0,2.0,3210.0,2800000,2022-08-22,2.0,48276.0,0.0,0.0,57.7183712,11.9523498
Torvmossegatan 1B,Radhus,Sävedalen,Göteborgs kommun,85.0,4.0,,4800000,2022-08-22,-8.0,56471.0,135.2,0.0,57.7166012,12.0620808
Lokattsbacken 16,Radhus,Långedrag,Göteborgs kommun,169.0,7.0,,8550000,2022-08-22,-4.0,50592.0,300.5,0.0,57.675879,11.8801223
Eklandagatan 54B,Lägenhet,Johanneberg,Göteborgs kommun,45.0,2.0,2724.0,3000000,2022-08-22,,66667.0,0.0,0.0,57.6896281,11.9884869
Famngatan 10 lägenhet 227,Lägenhet,Högsbo,Göteborgs kommun,29.0,1.0,1635.0,1850000,2022-08-22,0.0,63793.0,0.0,0.0,,
Arvesgärde 13,Lägenhet,Tuve,Göteborgs kommun,65.5,2.0,4445.0,1950000,2022-08-22,-5.0,29771.0,0.0,0.0,57.7521751,11.9247459
Borstbindaregatan 19,Lägenhet,Kvillebäcken,Göteborgs kommun,55.0,2.0,3490.0,2850000,2022-08-22,6.0,51818.0,0.0,0.0,57.7211784,11.9465578
Kobbeslätten 6H,Lägenhet,Askim,Göteborgs kommun,38.0,1.0,2545.0,1850000,2022-08-22,-2.0,48684.0,0.0,0.0,57.6385409,11.9431458
Myrekärrsvägen 1,Lägenhet,Centrala Hisingen,Göteborgs kommun,89.0,4.0,4439.0,3250000,2022-08-22,-4.0,36517.0,0.0,10.0,57.7393735,11.91425745088155
Orkestergatan 9,Lägenhet,Kaverös,Göteborgs kommun,78.5,3.0,3301.0,2900000,2022-08-22,4.0,36943.0,0.0,0.0,57.6644775,11.9227633
Kvastpricksvägen 20,Villa,Torslanda,Göteborgs kommun,85.0,4.0,,4200000,2022-08-21,5.0,49412.0,700.0,0.0,57.7055464,11.7429733
Johan I Bönns väg 48,Villa,Torslanda,Göteborgs kommun,181.0,6.0,,9200000,2022-08-21,3.0,50829.0,805.0,0.0,57.7305747,11.7976362
Kapplandsgatan 100,Lägenhet,Högsbo,Göteborgs kommun,54.8,2.0,3367.0,2250000,2022-08-21,3.0,41058.0,0.0,0.0,57.6694349,11.9332943
Höjdhopparegången 10,Radhus,Biskopsgården,Göteborgs kommun,92.0,4.0,5105.0,3200000,2022-08-21,14.0,34783.0,0.0,0.0,57.7232078,11.8902872
Såggatan 20E,Lägenhet,Majorna,Göteborgs kommun,57.5,2.0,4618.0,3000000,2022-08-21,2.0,52174.0,0.0,0.0,57.6950876,11.9264104
Ångaren Ediths gata 5,Lägenhet,Sannegårdshamnen,Göteborgs kommun,30.0,1.0,2078.0,2150000,2022-08-21,2.0,71667.0,0.0,0.0,57.7081437,11.9251401
Västra Gunnesgärde 45,Lägenhet,Tuve,Göteborgs kommun,41.0,2.0,2477.0,1650000,2022-08-21,0.0,40244.0,0.0,0.0,57.7517143,11.9324988
Klippfyrsvägen 9A,Villa,Hjuvik,Göteborgs kommun,50.0,,,19000000,2022-08-21,,380000.0,2044.0,0.0,57.7011639,11.7149161
Östra Hamngatan 3,Lägenhet,Inom Vallgraven,Göteborgs kommun,85.5,3.0,2405.0,6500000,2022-08-21,13.0,76023.0,0.0,0.0,57.7096292,11.9662454
Anders Zornsgatan 23D,Lägenhet,Örgryte,Göteborgs kommun,45.0,2.0,3061.0,2495000,2022-08-21,0.0,55444.0,0.0,0.0,57.7029328,12.0158508
Kobergsgatan 18,Lägenhet,Strömmensberg,Göteborgs kommun,38.5,2.0,2655.0,2280000,2022-08-20,0.0,59221.0,0.0,0.0,57.7205417,12.0160405
Ebbe Lieberathsgatan 16A,Lägenhet,Johanneberg,Göteborgs kommun,97.0,3.5,5071.0,4700000,2022-08-20,0.0,48454.0,0.0,0.0,57.6820641,11.9991447
Östra Gunnesgärde 14C,Villa,Tuve,Göteborgs kommun,117.0,5.0,,4100000,2022-08-20,-5.0,35043.0,220.0,0.0,57.7491844,11.9349848
Halsviksvägen 10,Villa,Styrsö,Göteborgs kommun,185.0,8.0,,4400000,2022-08-20,-12.0,23784.0,461.0,14.0,57.6144371,11.7760286
Markvågsgatan 5,Villa,Järnbrott,Göteborgs kommun,109.0,6.0,,5600000,2022-08-19,-4.0,51376.0,484.7,63.0,57.6516347,11.9279266
Lurebackavägen 30 a,Villa,Torslanda,Göteborgs kommun,107.0,4.0,,2550000,2022-08-19,-61.0,23832.0,703.0,93.8,57.7426449,11.8463722
Fiolgatan 8,Lägenhet,Ruddalen,Göteborgs kommun,69.3,3.0,5047.0,2480000,2022-08-19,0.0,35786.0,0.0,0.0,57.660197,11.9120996
Spektrumsgatan 66,Radhus,Åkered,Göteborgs kommun,159.0,7.0,,6600000,2022-08-19,2.0,41509.0,299.2,0.0,57.6311225,11.89753861823922
Västra Gunnesgärde 11,Lägenhet,Tuve,Göteborgs kommun,86.0,4.0,3985.0,2300000,2022-08-19,0.0,26744.0,0.0,0.0,57.750168,11.933135
Gamlestads Brygga 11,Lägenhet,Gamlestaden,Göteborgs kommun,73.0,3.0,3728.0,4650000,2022-08-19,17.0,63699.0,0.0,0.0,57.7275558,12.0061213
Högsbogatan 29,Lägenhet,Högsbo,Göteborgs kommun,60.0,2.0,4001.0,2520000,2022-08-19,1.0,42000.0,0.0,0.0,57.6743974,11.930464
Virveltorget 6,Lägenhet,Centrala Hisingen,Göteborgs kommun,61.0,2.0,3946.0,2235000,2022-08-19,7.0,36639.0,0.0,0.0,,
Basungatan 27,Lägenhet,Kaverös,Göteborgs kommun,55.0,2.0,3369.0,2050000,2022-08-19,-5.0,37273.0,0.0,0.0,57.6623326,11.9191837
Lilla Myrekärrsvägen 1,Villa,Kärrdalen,Göteborgs kommun,103.0,4.0,,5495000,2022-08-19,0.0,53350.0,781.0,0.0,57.7428232,11.91758053664272
Stabbegatan 18,Lägenhet,Björkekärr,Göteborgs kommun,62.0,3.0,3506.0,2750000,2022-08-19,4.0,44355.0,0.0,0.0,57.7170967,12.048587
Lövmossevägen 33,Villa,Askim,Göteborgs kommun,112.0,6.0,,7520000,2022-08-19,-6.0,67143.0,809.0,112.0,57.63024535,11.957779307613286
Doktor Forselius Gata 30,Lägenhet,Guldheden,Göteborgs kommun,81.5,4.0,5231.0,3600000,2022-08-19,3.0,44172.0,0.0,0.0,57.6797829,11.9820667
Falkgatan 11,Lägenhet,Bagaregården,Göteborgs kommun,23.0,1.0,1378.0,1850000,2022-08-19,3.0,80435.0,0.0,0.0,57.718427,12.004935
A R Lorents gata 61,Lägenhet,Klippan,Göteborgs kommun,111.0,4.0,5726.0,5100000,2022-08-19,2.0,45946.0,0.0,0.0,57.6889021,11.9079299
Ostgatan 22,Lägenhet,Kallebäck,Göteborgs kommun,99.0,5.0,6947.0,3225000,2022-08-19,-1.0,32576.0,0.0,0.0,57.6836637,12.0097592
Rudenschöldsgatan 15C,Lägenhet,Centrala Hisingen,Göteborgs kommun,50.0,2.0,3966.0,1695000,2022-08-19,0.0,33900.0,0.0,0.0,57.7260252,11.9438136
Snövädersgatan 5,Lägenhet,Biskopsgården,Göteborgs kommun,65.0,3.0,3778.0,1490000,2022-08-19,-1.0,22923.0,0.0,0.0,57.7130723,11.8889708
Arbetaregatan 16A,Lägenhet,Göteborg,Göteborgs kommun,54.0,2.0,3492.0,3000000,2022-08-19,,55556.0,0.0,0.0,57.7065982,11.9313117
Miraallén 9,Lägenhet,Sannegårdshamnen,Göteborgs kommun,95.0,3.0,5590.0,5000000,2022-08-19,3.0,52632.0,0.0,0.0,57.7054904,11.9284894
Stekastigen 4,Lägenhet,Agnesberg,Göteborgs kommun,60.5,2.0,4689.0,1295000,2022-08-19,0.0,21405.0,0.0,0.0,57.789726,12.0248862
Monsungatan 32,Lägenhet,Eriksberg,Göteborgs kommun,32.0,1.5,1867.0,2350000,2022-08-19,,73438.0,0.0,0.0,57.6984746,11.9084647
Basungatan 18,Lägenhet,Ruddalen,Göteborgs kommun,30.0,1.0,1864.0,1510000,2022-08-19,18.0,50333.0,0.0,0.0,57.6621805,11.9188518
Linnégatan 51,Lägenhet,Linné,Göteborgs kommun,61.5,2.0,3541.0,4000000,2022-08-19,21.0,65041.0,0.0,0.0,57.6932788,11.9521868
Viktoriagatan 15C,Lägenhet,Vasastaden,Göteborgs kommun,36.0,2.0,1628.0,3450000,2022-08-19,11.0,95833.0,0.0,0.0,57.6999859,11.964514
Penselgatan 10,Lägenhet,Kvillebäcken,Göteborgs kommun,55.6,2.0,3487.0,2670000,2022-08-19,3.0,48022.0,0.0,0.0,57.7236429,11.9492663
Rosenapelgatan 27,Lägenhet,Centrala Hisingen,Göteborgs kommun,30.5,1.0,2192.0,1990000,2022-08-19,0.0,65246.0,0.0,0.0,57.7185337,11.9265289
Bäckegatan 25 A,Lägenhet,Gamla Masthugget,Göteborgs kommun,66.0,3.0,3900.0,3700000,2022-08-19,1.0,56061.0,0.0,0.0,57.6942169,11.9396001
Klarinettgatan 5,Lägenhet,Ruddalen,Göteborgs kommun,53.5,2.0,3372.0,2300000,2022-08-18,10.0,42991.0,0.0,0.0,57.6616405,11.9166153
Norra Liden 31,Lägenhet,Kungshöjd,Göteborgs kommun,73.0,3.0,5048.0,3500000,2022-08-18,1.0,47945.0,0.0,0.0,57.7041963,11.958665
Famngatan 16,Lägenhet,Högsbo,Göteborgs kommun,29.0,1.0,1635.0,1600000,2022-08-18,-2.0,55172.0,0.0,0.0,57.6626334,11.9270175
Gullrisgatan 7a,Lägenhet,Centrala Hisingen,Göteborgs kommun,48.0,2.0,2411.0,2210000,2022-08-18,17.0,46042.0,0.0,0.0,57.7269381,11.9426877
Ulfsparregatan 11F,Lägenhet,Lunden,Göteborgs kommun,48.5,2.0,3482.0,2850000,2022-08-18,2.0,58763.0,0.0,0.0,57.7096885,12.0129395
Mandolingatan 3,Lägenhet,Ruddalen,Göteborgs kommun,68.0,3.0,3752.0,2700000,2022-08-18,-3.0,39706.0,0.0,0.0,57.6584689,11.9178951
Sägengatan 24,Lägenhet,Hisings Backa,Göteborgs kommun,83.4,3.0,5428.0,1750000,2022-08-18,,20983.0,0.0,0.0,57.7450691,11.978928
Plåtmyntsgatan 15,Lägenhet,Högsbo,Göteborgs kommun,53.5,2.0,4253.0,2050000,2022-08-18,-2.0,38318.0,0.0,0.0,57.6739482,11.9260808
Eriksbergstorget 3,Lägenhet,Eriksberg,Göteborgs kommun,61.5,2.0,3250.0,3350000,2022-08-18,0.0,54472.0,0.0,0.0,57.7003924,11.91348
Lilla Idtjärnsgatan 91,Villa,Rannebergen,Göteborgs kommun,135.0,6.0,,3500000,2022-08-18,5.0,25926.0,266.0,6.0,57.80902445,12.066111390783488
Munkebäcksgatan 23O,Lägenhet,Kålltorp,Göteborgs kommun,74.0,3.0,4510.0,4300000,2022-08-18,-2.0,58108.0,0.0,19.0,57.7167297,12.0244983
Bohusgatan 18,Lägenhet,Centrum,Göteborgs kommun,81.5,3.0,4569.0,4900000,2022-08-18,,60123.0,0.0,0.0,57.7039738,11.9827574
Schottisvägen 3,Lägenhet,Gårdsten,Göteborgs kommun,71.9,3.0,3044.0,1500000,2022-08-18,1.0,20862.0,0.0,0.0,57.7896875,12.0293382
Björklundavägen 4,Lägenhet,Nya Hovås,Göteborgs kommun,35.0,1.0,2448.0,2200000,2022-08-18,10.0,62857.0,0.0,0.0,57.6000347,11.9525532
Persikogatan 118,Radhus,Bratthammar,Göteborgs kommun,123.0,4.0,,6275000,2022-08-18,5.0,51016.0,261.1,15.0,57.6496878,11.8813105
Fagottgatan 8,Lägenhet,Ruddalen,Göteborgs kommun,68.0,3.0,3752.0,2300000,2022-08-18,2.0,33824.0,0.0,0.0,57.6591307,11.9160952
Stenbocksgatan 9,Lägenhet,Sannegårdshamnen,Göteborgs kommun,79.5,3.0,4271.0,4195000,2022-08-18,0.0,52767.0,0.0,0.0,57.709541,11.9302656
Vaktmästaregången 2,Lägenhet,Masthugget,Göteborgs kommun,67.5,2.0,3802.0,3480000,2022-08-18,6.0,51556.0,0.0,0.0,57.6954744,11.9396993
Bratteråsgatan 40,,Lägenhet,Eriksberg,Göteborgs kommun,33.0,1.0,2451.0,2820000,2022-08-18,9.0,85455.0,0.0,0.0,57.7036654,11.9146426
Sägengatan 40,Lägenhet,Hisings Backa,Göteborgs kommun,96.8,4.0,6646.0,2580000,2022-08-18,3.0,26653.0,0.0,0.0,57.7462668,11.9791946
Gunnestorpsvägen 113,Lägenhet,Tuve,Göteborgs kommun,49.4,2.0,2846.0,2325000,2022-08-18,2.0,47065.0,0.0,0.0,57.7503333,11.928602
Björsaredsvägen 60B,Villa,Olofstorp,Göteborgs kommun,121.0,4.0,,4625000,2022-08-18,-3.0,38223.0,1636.0,18.0,57.7952941,12.1475235
Nordostpassagen 59,Lägenhet,Linné,Göteborgs kommun,63.0,2.0,3674.0,4650000,2022-08-18,6.0,73810.0,0.0,0.0,57.6926855,11.947316
Fjällgatan 3 I,Lägenhet,Gamla Masthugget,Göteborgs kommun,38.0,2.0,2492.0,2720000,2022-08-18,11.0,71579.0,0.0,0.0,57.6965291,11.9447044
Fridkullagatan 17 A,Lägenhet,Johanneberg,Göteborgs kommun,55.0,2.0,3550.0,3000000,2022-08-18,0.0,54545.0,0.0,0.0,57.6835143,11.9863818
Olof rudbecksgatan 25,Lägenhet,Johanneberg,Göteborgs kommun,66.5,3.0,4711.0,3900000,2022-08-18,-2.0,58647.0,0.0,0.0,57.6921245,11.9850966
Solrosgatan 6 C,Lägenhet,Kålltorp,Göteborgs kommun,33.0,1.0,2243.0,2100000,2022-08-18,2.0,63636.0,0.0,0.0,57.7169291,12.0264734
Nymilsgatan 9,Lägenhet,Flatås,Göteborgs kommun,109.0,5.0,5560.0,3650000,2022-08-17,,33486.0,0.0,0.0,57.6613573,11.9263387
Bäckebolslyckan 24,Lägenhet,Hisings Backa,Göteborgs kommun,97.6,4.0,6469.0,2620000,2022-08-17,5.0,26844.0,0.0,0.0,57.7521811,11.9863143
Bohusgatan 8,Lägenhet,Heden,Göteborgs kommun,77.5,3.0,4658.0,4300000,2022-08-17,-1.0,55484.0,0.0,0.0,57.7039738,11.9827574
Björklundavägen 8,Lägenhet,Nya Hovås,Göteborgs kommun,35.0,1.5,2448.0,2250000,2022-08-17,-4.0,64286.0,0.0,0.0,57.6000347,11.9525532
Seglaregatan 35,Lägenhet,Majorna,Göteborgs kommun,37.3,1.0,4183.0,1900000,2022-08-17,7.0,50938.0,0.0,0.0,57.6904893,11.9194178
Hagbergsgatan 12,Lägenhet,Utby,Göteborgs kommun,66.0,3.0,4676.0,2620000,2022-08-17,1.0,39697.0,0.0,0.0,57.7362447,12.0486489
Turkosgatan 32,Lägenhet,Tynnered,Göteborgs kommun,113.3,5.0,6775.0,3000000,2022-08-17,2.0,26478.0,0.0,0.0,57.6485352,11.8975154
Solventilsgatan 16,Lägenhet,Kvillebäcken,Göteborgs kommun,55.0,2.0,3007.0,2720000,2022-08-17,-3.0,49455.0,0.0,0.0,57.7223859,11.9487387
Friggagatan 5B,Lägenhet,Stampen,Göteborgs kommun,59.1,2.0,3109.0,2790000,2022-08-17,4.0,47208.0,0.0,0.0,57.7134706,11.9916173
Birkagatan 22A,Lägenhet,Örgryte,Göteborgs kommun,81.0,3.0,4069.0,5200000,2022-08-17,8.0,64198.0,0.0,0.0,57.7048768,12.0235547
Legendgatan 105,Villa,Hisings Backa,Göteborgs kommun,116.0,5.0,,4500000,2022-08-17,,38793.0,268.0,0.0,57.7427319,11.984026
Föreningsgatan 3A,Lägenhet,Vasastaden,Göteborgs kommun,63.0,2.0,3967.0,3680000,2022-08-17,3.0,58413.0,0.0,0.0,57.6941991,11.962083959595962
Sankt Sigfridsgatan 79,Villa,Örgryte,Göteborgs kommun,142.0,6.0,,9700000,2022-08-17,-3.0,68310.0,400.0,89.0,57.6936607,12.00285094989536
Fagottgatan 6,Lägenhet,Ruddalen,Göteborgs kommun,31.5,1.0,1906.0,1590000,2022-08-17,6.0,50476.0,0.0,0.0,57.6593794,11.9173649
Rangströmsliden 5,Lägenhet,Masthugget,Göteborgs kommun,38.5,2.0,2119.0,2650000,2022-08-17,13.0,68831.0,0.0,0.0,57.697014,11.9429685
Mungårdsgatan 119,Villa,Västra Frölunda,Göteborgs kommun,135.0,,,6400000,2022-08-17,,47407.0,225.2,12.0,57.6570057,11.8766103
Sägengatan 19,Lägenhet,Hisings Backa,Göteborgs kommun,57.6,2.0,4500.0,1975000,2022-08-17,4.0,34288.0,0.0,0.0,57.7449842,11.9778867
Björcksgatan 62E,Lägenhet,Kålltorp,Göteborgs kommun,38.5,2.0,2500.0,2200000,2022-08-17,11.0,57143.0,0.0,0.0,57.7176243,12.0314267
Gibraltargatan 18,Lägenhet,Nedre Johanneberg,Göteborgs kommun,124.0,4.0,5379.0,8550000,2022-08-17,8.0,68952.0,0.0,0.0,57.6922969,11.9779161
Eklandagatan 56C,Lägenhet,Johanneberg,Göteborgs kommun,45.0,2.0,2760.0,3175000,2022-08-17,11.0,70556.0,0.0,0.0,57.6893075,11.9884789
Basungatan 3,Lägenhet,Kaverös,Göteborgs kommun,53.5,2.0,3412.0,1900000,2022-08-17,3.0,35514.0,0.0,0.0,57.6605849,11.9186244
Långströmsgatan 26,Lägenhet,Göteborg – Hisingen,Göteborgs kommun,70.0,3.0,3792.0,2825000,2022-08-17,5.0,40357.0,0.0,0.0,57.72428565,11.90100437972842
Distansgatan 63,Lägenhet,Flatås,Göteborgs kommun,109.0,5.0,4441.0,3950000,2022-08-17,0.0,36239.0,0.0,0.0,57.6607716,11.9262185
Friggagatan 5B,Lägenhet,Stampen,Göteborgs kommun,83.1,3.0,4025.0,5000000,2022-08-17,,60168.0,0.0,0.0,57.7134706,11.9916173
Ängslyckan 48,Radhus,Skintebo,Göteborgs kommun,118.0,5.0,,5350000,2022-08-17,0.0,45339.0,86.0,30.0,57.5934321,11.9398203
Påskbergsgatan 10,Lägenhet,Örgryt,Göteborgs kommun,39.0,1.0,2601.0,2350000,2022-08-17,4.0,60256.0,0.0,0.0,57.6959109,11.9972207
Önneredsvägen 118,Lägenhet,Önnered,Göteborgs kommun,52.0,2.0,3209.0,3300000,2022-08-17,-3.0,63462.0,0.0,0.0,57.6440156,11.8807526
Brynolfsgatan 7,Villa,Göteborg,Göteborgs kommun,132.0,9.0,,7920000,2022-08-17,22.0,60000.0,417.8,66.0,57.6809138,11.998914
Engdahlsgatan 4 C,Lägenhet,Johanneberg,Göteborgs kommun,46.0,2.0,2606.0,2975000,2022-08-17,8.0,64674.0,0.0,0.0,57.6867754,11.9818343
Svankällevägen 12,Villa,Gerrebacka,Göteborgs kommun,140.0,5.0,,6995000,2022-08-16,0.0,49964.0,1234.0,30.0,57.8115559,11.9864481
Gulsparvsgatan 47,Radhus,Örgryte,Göteborgs kommun,134.0,6.0,,7825000,2022-08-16,-2.0,58396.0,270.1,68.0,57.6887177,12.007460245461624
Kvillegatan 37,Lägenhet,Centrala Hisingen,Göteborgs kommun,63.0,2.0,2987.0,2800000,2022-08-16,0.0,44444.0,0.0,0.0,57.7183323,11.9514436
Tredje Långgatan 40,Lägenhet,Linnéstaden,Göteborgs kommun,59.7,2.0,3189.0,3450000,2022-08-16,-1.0,57789.0,0.0,0.0,57.6988576,11.9521338
Storhöjdsgatan 15,Lägenhet,Strömmensberg,Göteborgs kommun,37.0,1.0,3736.0,1850000,2022-08-16,6.0,50000.0,0.0,0.0,57.7198799,12.0156447
Kyrkåsgatan 13A,Lägenhet,Kålltorp,Göteborgs kommun,49.0,2.0,1817.0,2950000,2022-08-16,0.0,60204.0,0.0,0.0,57.7113212,12.0229135
Gröna Annas gata 9,Lägenhet,Centrala Hisingen,Göteborgs kommun,68.0,3.0,3698.0,3195000,2022-08-16,0.0,46985.0,0.0,0.0,57.7196262,11.9530861
Fagottgatan 10,Lägenhet,Ruddalen,Göteborgs kommun,31.5,1.0,1868.0,1400000,2022-08-16,-2.0,44444.0,0.0,0.0,57.6596485,11.9164487
Barken beatrices gata 10,Lägenhet,Sannegården,Göteborgs kommun,76.0,3.0,4362.0,3825000,2022-08-16,1.0,50329.0,0.0,0.0,57.7057542,11.9234476
Volrat Thamsgatan 15,Lägenhet,Johanneberg,Göteborgs kommun,24.8,1.0,1888.0,2485000,2022-08-16,0.0,100202.0,0.0,0.0,57.6906639,11.9867383
Bergums furåsväg 4A,Villa,Olofstorp,Göteborgs kommun,45.0,2.0,,1370000,2022-08-16,6.0,30444.0,740.0,0.0,57.7956814,12.206022
Kalendervägen 79,Lägenhet,Kortedala,Göteborgs kommun,27.9,1.0,2047.0,1250000,2022-08-16,5.0,44803.0,0.0,0.0,57.7519373,12.0366228
Lars Kaggsgatan 28H,Lägenhet,Gamlestaden,Göteborgs kommun,39.5,2.0,3175.0,1890000,2022-08-16,0.0,47848.0,0.0,0.0,57.7343023,12.0184006
Gullrisgatan 4D,Lägenhet,Centrala Hisingen,Göteborgs kommun,47.0,2.0,3933.0,1675000,2022-08-16,-7.0,35638.0,0.0,0.0,57.726592,11.9438928
Barkspadesgatan 12,Radhus,Björkekärr,Göteborgs kommun,130.0,6.0,,6870000,2022-08-16,0.0,52846.0,469.0,0.0,57.7131568,12.0435853
Gustaf Dalénsgatan 18,Lägenhet,Kvillebäcken,Göteborgs kommun,62.9,2.0,4331.0,2900000,2022-08-16,-3.0,46105.0,0.0,0.0,57.7249527,11.9447218
Viktoriagatan 34,Lägenhet,Vasastaden,Göteborgs kommun,31.0,1.0,2070.0,2550000,2022-08-16,0.0,82258.0,0.0,0.0,57.6999859,11.964514
Sagogången 9,Lägenhet,Hisings Backa,Göteborgs kommun,63.5,2.0,3870.0,1500000,2022-08-16,0.0,23622.0,0.0,0.0,57.740771,11.9750742
Lantmätaregatan 11C,Lägenhet,Kvillebäcken,Göteborgs kommun,74.0,3.0,4580.0,2900000,2022-08-16,,39189.0,0.0,0.0,57.7219459,11.9421666
Västra stillestorpsgatan 19,Lägenhet,Centrala Hisingen,Göteborgs kommun,96.5,4.0,6484.0,3095000,2022-08-16,0.0,32073.0,0.0,0.0,57.7167461,11.9327241
Nordostpassagen 38,Lägenhet,Linnéstaden,Göteborgs kommun,33.0,1.5,2126.0,2400000,2022-08-16,0.0,72727.0,0.0,0.0,57.6932935,11.9477082
Mandolingatan 5,Lägenhet,Ruddalen,Göteborgs kommun,59.5,2.0,2724.0,2050000,2022-08-16,3.0,34454.0,0.0,0.0,57.6581751,11.9165167
Delsjökolonin 106,Fritidshus,Örgryte,Göteborgs kommun,35.0,2.0,,1780000,2022-08-16,19.0,50857.0,0.0,0.0,57.69709485,12.03613507909702
Plåtmyntsgatan 7,Lägenhet,Högsbo,Göteborgs kommun,53.5,2.0,4253.0,2350000,2022-08-16,7.0,43925.0,0.0,0.0,57.6744754,11.9255484
Fanjunkaregatan 2B,Lägenhet,Gamlestaden,Göteborgs kommun,36.0,1.0,2679.0,1600000,2022-08-16,1.0,44444.0,0.0,0.0,57.7332169,12.0232824
Träringen 70,Lägenhet,Björkekärr,Göteborgs kommun,67.5,3.0,4517.0,3420000,2022-08-16,,50667.0,0.0,0.0,57.7146635,12.0511792
Flygledarevägen 80,Villa,Torslanda,Göteborgs kommun,182.0,5.0,,9000000,2022-08-16,-12.0,49451.0,867.6,0.0,57.7147675,11.7718203
Virvelvindsgatan 4,Lägenhet,Centrala Hisingen,Göteborgs kommun,35.5,1.0,2903.0,2080000,2022-08-16,4.0,58592.0,0.0,0.0,57.7202066,11.942678577305252
Kommendörsgatan 12,Lägenhet,Majorna,Göteborgs kommun,26.5,1.0,1774.0,1940000,2022-08-16,3.0,73208.0,0.0,0.0,57.6973702,11.9304767
Axelinas väg 2,Villa,Torslanda,Göteborgs kommun,106.0,4.0,6002.0,5550000,2022-08-15,-7.0,52358.0,0.0,0.0,57.7129431,11.724861
Mölndalsvägen 87 D,Lägenhet,Almedal,Göteborgs kommun,50.0,2.0,3139.0,3150000,2022-08-15,0.0,63000.0,0.0,0.0,57.6834723,12.0006205
Antenngatan 37E,Lägenhet,Västra Frölunda,Göteborgs kommun,64.0,3.0,5057.0,3170000,2022-08-15,,49531.0,0.0,0.0,57.6536004,11.9308669
Gustaf Dalénsgatan 5C,Lägenhet,Centrala Hisingen Kvillebäcken,Göteborgs kommun,76.0,3.0,3264.0,3650000,2022-08-15,0.0,48026.0,0.0,0.0,57.7221508,11.9455457
Ebbe Lieberathsgatan 16C,Lägenhet,Göteborg,Göteborgs kommun,54.5,2.0,3727.0,3050000,2022-08-15,2.0,55963.0,0.0,0.0,57.6820641,11.9991447
Ostindiefararen 19,Lägenhet,Eriksberg,Göteborgs kommun,76.0,3.0,3341.0,4750000,2022-08-15,-1.0,62500.0,0.0,0.0,57.6985431,11.9096551
Kallebäcksvägen 17A,Lägenhet,Göteborg,Göteborgs kommun,126.0,5.0,6088.0,4500000,2022-08-15,,35714.0,0.0,0.0,57.68484185,12.011353219510708
Ljungslättsgatan 6B,Lägenhet,Björkekärr,Göteborgs kommun,62.0,2.0,3565.0,3200000,2022-08-15,4.0,51613.0,0.0,0.0,,
Noleredsvägen 10,Lägenhet,Torslanda,Göteborgs kommun,78.0,3.0,4935.0,2625000,2022-08-15,,33654.0,0.0,0.0,57.7229731,11.7637985
Chalmersgatan 3C,Lägenhet,Lorensberg,Göteborgs kommun,17.0,1.0,956.0,2600000,2022-08-15,4.0,152941.0,0.0,0.0,57.6979797,11.9754751
Solventilsgatan 18,Lägenhet,Kvillebäcken,Göteborgs kommun,39.0,1.0,2357.0,1850000,2022-08-15,-5.0,47436.0,0.0,0.0,57.7223859,11.9487387
Mandolingatan 3,Lägenhet,Ruddalen,Göteborgs kommun,68.0,3.0,3671.0,2100000,2022-08-15,-4.0,30882.0,0.0,0.0,57.6584689,11.9178951
Bäckebolslyckan 23,Lägenhet,Hisings Backa,Göteborgs kommun,72.6,3.0,4991.0,1750000,2022-08-15,-2.0,24105.0,0.0,0.0,57.7520421,11.9862474
Skovelvägen 7,Villa,Hisings Kärra,Göteborgs kommun,96.0,4.0,5785.0,4000000,2022-08-15,0.0,41667.0,0.0,0.0,57.8050147,11.9813175
Hovås Allé 32,Lägenhet,Hovås,Göteborgs kommun,76.5,3.0,4923.0,4345000,2022-08-15,1.0,56797.0,0.0,0.0,57.6004582,11.9539867
Virginsgatan 6B,Lägenhet,Kålltorp,Göteborgs kommun,45.0,2.0,2427.0,2595000,2022-08-15,0.0,57667.0,0.0,0.0,57.7112903,12.0254441
Jägaregatan 6B,Lägenhet,Centrala Hisingen,Göteborgs kommun,37.0,1.0,2327.0,1575000,2022-08-15,-1.0,42568.0,0.0,0.0,57.7162845,11.9446885
Sofiagatan 56L,Lägenhet,Strömmensberg,Göteborgs kommun,57.0,2.5,4076.0,3300000,2022-08-15,12.0,57895.0,0.0,0.0,57.7207421,12.0214476
Beryllgatan 51,Lägenhet,Tynnered,Göteborgs kommun,67.5,2.0,4168.0,2150000,2022-08-15,5.0,31852.0,0.0,0.0,57.6571511,11.8860761
Gibraltargatan 104,Lägenhet,Johanneberg,Göteborgs kommun,72.0,3.0,4080.0,3900000,2022-08-15,4.0,54167.0,0.0,0.0,57.6800578,11.9852078
Kärrhöksgatan 5 C,Lägenhet,Kålltorp,Göteborgs kommun,64.0,3.0,5097.0,3720000,2022-08-14,1.0,58125.0,0.0,0.0,57.7096866,12.0260074
Fagottgatan 4,Lägenhet,Västra Frölunda,Göteborgs kommun,31.5,1.0,1530.0,1300000,2022-08-14,0.0,41270.0,0.0,0.0,57.6587627,11.9171311
Bergums furåsväg 29,Villa,Olofstorp,Göteborgs kommun,75.0,4.0,,1950000,2022-08-14,0.0,26000.0,1726.0,28.0,57.7956814,12.206022
Solarvsplan 22,Lägenhet,Vita Fläcken,Göteborgs kommun,75.6,3.0,4756.0,2800000,2022-08-14,-3.0,37037.0,0.0,0.0,57.6317803,11.9345743
Kransen 4F,Lägenhet,Strömmensberg,Göteborgs kommun,55.5,2.0,3623.0,2760000,2022-08-14,2.0,49730.0,0.0,0.0,57.72114,12.0180662
Kulörgatan 9,Radhus,Åkered,Göteborgs kommun,159.0,6.0,,6050000,2022-08-14,1.0,38050.0,509.0,0.0,57.6309659,11.898636264895728
Persgatan 11A,Lägenhet,Lunden,Göteborgs kommun,51.8,2.0,2829.0,3250000,2022-08-14,,62741.0,0.0,0.0,57.7123817,12.0095607
Gamlestads Brygga 5,Lägenhet,Gamlestaden,Göteborgs kommun,73.0,3.0,4180.0,4050000,2022-08-13,2.0,55479.0,0.0,0.0,57.7274604,12.0055922
Tellusgatan 45,Lägenhet,I Bergsjön,Göteborgs kommun,62.0,2.0,3337.0,1800000,2022-08-13,0.0,29032.0,0.0,0.0,57.7572156,12.0724188
Ernst torulfsgatan 3B,Lägenhet,Munkebäck,Göteborgs kommun,58.0,2.0,3415.0,3500000,2022-08-13,4.0,60345.0,0.0,0.0,57.7212149,12.0291168
Gunnilse granväg 2B,Villa,Gunnilse,Göteborgs kommun,230.0,8.0,,6500000,2022-08-13,0.0,28261.0,1080.0,0.0,57.7900395,12.091189749861496
Fiolgatan 6,Lägenhet,Ruddalen,Göteborgs kommun,92.0,4.0,6403.0,2900000,2022-08-13,4.0,31522.0,0.0,0.0,57.6606977,11.9125393
Norra Fjädermolnsgatan 38,Lägenhet,Länsmansgården,Göteborgs kommun,55.0,2.0,3308.0,1880000,2022-08-13,-1.0,34182.0,0.0,0.0,57.7354322,11.8976676
Meli Johanssons Väg 31,Lägenhet,Torslanda,Göteborgs kommun,65.0,3.0,3663.0,3750000,2022-08-13,,57692.0,0.0,0.0,57.7624808,11.8162196
Brottkärrsvägen 90,Villa,Hovås,Göteborgs kommun,296.3,8.0,,17000000,2022-08-13,-3.0,57374.0,1350.0,51.6,57.59852765,11.92730875000001
Havsörnsgatan 6A,Lägenhet,Kålltorp,Göteborgs kommun,54.0,2.0,3583.0,2900000,2022-08-13,4.0,53704.0,0.0,0.0,57.7070931,12.0272258
Ljunggatan 10,Lägenhet,Landala Egnahem,Göteborgs kommun,39.2,1.0,2535.0,2550000,2022-08-12,0.0,65051.0,0.0,0.0,57.6876098,11.9725221
Rundbäcksgatan 6,Lägenhet,Centrala Hisingen,Göteborgs kommun,52.0,2.0,3263.0,2750000,2022-08-12,2.0,52885.0,0.0,0.0,57.7231009,11.9451481
Godemansgatan 9E,Lägenhet,Centrala Hisingen,Göteborgs kommun,38.0,1.0,3199.0,1600000,2022-08-12,-6.0,42105.0,0.0,0.0,57.7223903,11.9435673
Sjupundsgatan 43,Lägenhet,Högsbohöjd,Göteborgs kommun,52.0,2.0,2771.0,2650000,2022-08-12,0.0,50962.0,0.0,0.0,57.6753794,11.9165649
Övre Hövik 4A,Villa,Styrsö,Göteborgs kommun,90.0,6.0,,3950000,2022-08-12,-1.0,43889.0,684.0,80.0,57.61460875,11.77507471772293
Kapplandsgatan 132,Lägenhet,Högsbo,Göteborgs kommun,26.8,1.0,1759.0,1620000,2022-08-12,2.0,60448.0,0.0,0.0,57.6686323,11.9333037
Kransen 4H,Lägenhet,Strömmensberg,Göteborgs kommun,55.5,2.0,3623.0,2810000,2022-08-12,8.0,50631.0,0.0,0.0,57.7218452,12.0189808
Bangatan 58,Lägenhet,Majorna,Göteborgs kommun,58.6,2.0,3410.0,2875000,2022-08-12,5.0,49061.0,0.0,0.0,57.6930944,11.9370529
Stekastigen 8,Lägenhet,Agnesberg,Göteborgs kommun,60.5,2.0,4689.0,1100000,2022-08-12,-8.0,18182.0,0.0,0.0,57.789726,12.0248862
Carl skottsbergs gata 88,Lägenhet,Änggården,Göteborgs kommun,67.5,3.0,4653.0,5300000,2022-08-12,3.0,78519.0,0.0,30.0,57.6800688,11.946065
Sagogången 14,Lägenhet,Hisings Backa,Göteborgs kommun,79.0,3.0,4878.0,1800000,2022-08-12,0.0,22785.0,0.0,0.0,57.740771,11.9750742
Bratteråsgatan 54,Lägenhet,Eriksberg,Göteborgs kommun,56.0,2.0,3313.0,3250000,2022-08-12,3.0,58036.0,0.0,0.0,57.7049651,11.9136668
Östra Arödsgatan 18,Villa,Hisings Backa,Göteborgs kommun,130.0,,,5800000,2022-08-12,-3.0,44615.0,814.0,92.0,57.736685,11.97128938717723
Blåhammarsgatan 15,Lägenhet,Härlanda,Göteborgs kommun,44.5,2.0,3315.0,2610000,2022-08-12,2.0,58652.0,0.0,0.0,57.7181361,12.0178759
Smörslätten 30,Lägenhet,Björkekärr,Göteborgs kommun,66.0,2.0,3099.0,2800000,2022-08-12,-5.0,42424.0,0.0,0.0,57.7201778,12.0561391
Ekebygatan 2,Lägenhet,Hisings Backa,Göteborgs kommun,80.1,3.0,5273.0,2005000,2022-08-12,8.0,25031.0,0.0,0.0,57.7567585,11.98916562397461
Basungatan 16,Lägenhet,Ruddalen,Göteborgs kommun,53.5,2.0,3388.0,2050000,2022-08-12,11.0,38318.0,0.0,0.0,57.6613662,11.9189457
Monsungatan 34,Lägenhet,Eriksberg,Göteborgs kommun,37.0,1.5,2103.0,2630000,2022-08-12,11.0,71081.0,0.0,0.0,57.6984746,11.9084647
Cederflychts gata 11,Lägenhet,Hisings Backa,Göteborgs kommun,66.1,2.0,4900.0,1595000,2022-08-12,0.0,24130.0,0.0,0.0,57.7520806,11.988027769327257
Åketorpsgatan 6,Villa,Åketorp,Göteborgs kommun,58.0,3.0,,4005000,2022-08-12,0.0,69052.0,1762.0,0.0,57.7545098,11.956784400531207
Stora Kronogårdsgatan 89,Radhus,Hisings Backa,Göteborgs kommun,122.0,5.0,,4850000,2022-08-12,11.0,39754.0,177.0,0.0,57.7405871,11.9840333
Åketorpsgatan 12C,Villa,Hisings Backa,Göteborgs kommun,168.0,6.0,,6000000,2022-08-12,6.0,35714.0,915.0,0.0,57.7553201,11.9645851
Tellusgatan 33C,Lägenhet,Bergsjön,Göteborgs kommun,48.0,2.0,2699.0,1350000,2022-08-12,-3.0,28125.0,0.0,0.0,57.7572156,12.0724188
Gröna gatan 32,Lägenhet,Majorna,Göteborgs kommun,53.2,4.0,4274.0,3495000,2022-08-12,0.0,65695.0,0.0,0.0,57.6912297,11.9165987
Dalheimersgatan 5A,Lägenhet,Norra Guldheden,Göteborgs kommun,64.0,2.0,4781.0,3250000,2022-08-12,2.0,50781.0,0.0,0.0,57.6901099,11.9647007
Bratteråsgatan 60,Lägenhet,Eriksberg,Göteborgs kommun,61.0,2.0,3153.0,3650000,2022-08-12,-1.0,59836.0,0.0,0.0,57.7030736,11.916051
Kristinehöjdsgatan 7,Lägenhet,Johanneberg,Göteborgs kommun,70.0,3.0,4373.0,3725000,2022-08-12,-2.0,53214.0,0.0,0.0,57.6909964,11.9892828
Plåtmyntsgatan 7,Lägenhet,Högsbo,Göteborgs kommun,29.0,1.0,2357.0,1750000,2022-08-12,0.0,60345.0,0.0,0.0,57.6744754,11.9255484
Chalmersgatan 27 B,Lägenhet,Vasastaden,Göteborgs kommun,86.0,2.5,3875.0,6000000,2022-08-12,14.0,69767.0,0.0,0.0,57.6979797,11.9754751
Tellusgatan 41,Lägenhet,Bergsjön,Göteborgs kommun,82.0,3.0,3854.0,2200000,2022-08-11,0.0,26829.0,0.0,0.0,57.7572156,12.0724188
Generalsgatan 4,Lägenhet,Kviberg,Göteborgs kommun,66.0,2.0,3162.0,2955000,2022-08-11,-2.0,44773.0,0.0,0.0,57.7310921,12.0243886
Ernst torulfsgatan 19C,Lägenhet,Munkebäck,Göteborgs kommun,67.3,2.0,6326.0,1825000,2022-08-11,0.0,27117.0,0.0,0.0,57.7219835,12.0312319
Kustgatan 14A,Lägenhet,Majorna,Göteborgs kommun,40.0,1.5,1784.0,2375000,2022-08-11,1.0,59375.0,0.0,0.0,57.693067,11.9163847
Rubingatan 17,Lägenhet,Tynnered,Göteborgs kommun,79.5,3.0,4709.0,2170000,2022-08-11,-1.0,27296.0,0.0,0.0,57.6456598,11.9007968
Teatergatan 19,Lägenhet,Göteborg,Göteborgs kommun,76.0,3.0,2266.0,4900000,2022-08-11,-2.0,64474.0,0.0,0.0,57.698884,11.9755226
Örnehufvudsgatan 17,Lägenhet,Johanneberg,Göteborgs kommun,47.0,2.0,3107.0,3225000,2022-08-11,12.0,68617.0,0.0,0.0,57.6868327,11.9841505
Barnhusgatan 30,Lägenhet,Prippska Tomten,Göteborgs kommun,60.4,2.0,3760.0,3550000,2022-08-11,8.0,58775.0,0.0,0.0,57.7078607,11.9806639
Scholandersgatan 2,Lägenhet,Centrala Hisingen,Göteborgs kommun,61.4,3.0,3800.0,2200000,2022-08-11,-4.0,35831.0,0.0,0.0,57.7298112,11.932273173825504
Tredje Långgatan 32A,Lägenhet,Linné,Göteborgs kommun,35.0,1.0,2101.0,3125000,2022-08-11,4.0,89286.0,0.0,0.0,57.6983288,11.9468392
Ostgatan 4,Lägenhet,Kallebäck,Göteborgs kommun,85.5,4.0,5886.0,2800000,2022-08-11,-6.0,32749.0,0.0,0.0,57.6844908,12.0088681
Sägengatan 67,Lägenhet,Hisings Backa,Göteborgs kommun,66.2,2.0,4543.0,1500000,2022-08-11,-3.0,22659.0,0.0,0.0,57.748208,11.981582529757556
Ebbe Lieberathsgatan 29B,Lägenhet,Almeda,Göteborgs kommun,78.0,3.0,3814.0,4095000,2022-08-11,0.0,52500.0,0.0,0.0,57.6820641,11.9991447
Lantmilsgatan 4,,Lägenhet,Kaverös,Göteborgs kommun,73.5,3.0,4323.0,2310000,2022-08-11,3.0,31429.0,0.0,0.0,57.6670109,11.926012
Sävenäsgatan 1C,Lägenhet,Munkebäck,Göteborgs kommun,48.5,2.0,3408.0,2150000,2022-08-11,8.0,44330.0,0.0,0.0,57.7233465,12.0196551
Eklandagatan 41A,Lägenhet,Johanneberg,Göteborgs kommun,77.1,3.0,3863.0,4520000,2022-08-11,22.0,58625.0,0.0,0.0,57.691133,11.987705
Norra Ligården 64,Radhus,Hisings Kärra,Göteborgs kommun,133.0,5.0,,4200000,2022-08-11,2.0,31579.0,169.3,0.0,,
Tångenvägen 12H,Radhus,Tuve,Göteborgs kommun,72.0,3.0,,3550000,2022-08-11,1.0,49306.0,270.2,0.0,57.7587977,11.9344008
Basungatan 40,Lägenhet,Kaverös,Göteborgs kommun,47.5,1.0,2930.0,1875000,2022-08-11,0.0,39474.0,0.0,0.0,57.663154,11.9168893
Virvelvindsgatan 8,Lägenhet,Centrala Hisingen,Göteborgs kommun,66.0,3.0,4195.0,2595000,2022-08-11,0.0,39318.0,0.0,0.0,57.7203328,11.9416665
Gibraltargatan 21B,Lägenhet,Johanneberg,Göteborgs kommun,25.0,1.0,1411.0,2250000,2022-08-11,0.0,90000.0,0.0,0.0,57.6864106,11.982878
Kaprifolgatan 5,Radhus,Grimmered,Göteborgs kommun,154.0,5.0,,7600000,2022-08-11,11.0,49351.0,384.0,0.0,57.6732272,11.8975296
Gibraltargatan 19B,Lägenhet,Johanneberg,Göteborgs kommun,45.5,2.0,2481.0,3050000,2022-08-11,2.0,67033.0,0.0,0.0,57.687023,11.9823234
Rubingatan 39,Lägenhet,Tynnered,Göteborgs kommun,36.5,1.0,2333.0,1500000,2022-08-11,,41096.0,0.0,0.0,57.6436526,11.9018735
Doktor Lindhs gata 3,Lägenhet,Södra guldheden,Göteborgs kommun,38.1,1.0,1917.0,2525000,2022-08-11,-1.0,66273.0,0.0,0.0,57.6819175,11.9666809
Allmänna vägen 40 F,Lägenhet,Majorna,Göteborgs kommun,54.5,2.0,4179.0,3200000,2022-08-11,8.0,58716.0,0.0,0.0,57.6955065,11.925822
Erik Dahlbergsgatan 28,Lägenhet,Vasastaden,Göteborgs kommun,124.0,4.0,5203.0,8150000,2022-08-11,-1.0,65726.0,0.0,0.0,57.6974355,11.9690655
Birkagatan 45,Lägenhet,Örgryte,Göteborgs kommun,52.0,2.0,3820.0,2725000,2022-08-11,5.0,52404.0,0.0,0.0,57.7065648,12.0224052
Kabelgatan 24,Lägenhet,Majorna,Göteborgs kommun,56.6,2.0,4034.0,2800000,2022-08-11,4.0,49470.0,0.0,0.0,57.68853485,11.926593772970325
Garverigatan 7,Lägenhet,Stampen,Göteborgs kommun,61.0,2.0,3281.0,3700000,2022-08-10,,60656.0,0.0,0.0,57.7126915,11.9919584
Hinnebäcksgatan 93,Villa,Tuve,Göteborgs kommun,121.0,7.0,,4500000,2022-08-10,0.0,37190.0,345.9,14.0,57.7508567,11.918807
Guldringen 36,Lägenhet,Tynnered,Göteborgs kommun,64.5,2.0,4383.0,2050000,2022-08-10,3.0,31783.0,0.0,0.0,57.6582008,11.89316
Masthuggsliden 16,Lägenhet,Masthugget,Göteborgs kommun,56.5,2.0,3338.0,3150000,2022-08-10,5.0,55752.0,0.0,0.0,57.6964536,11.9428507
Kommendörsgatan 12B,Lägenhet,Majorna,Göteborgs kommun,44.0,1.5,3079.0,2700000,2022-08-10,0.0,61364.0,0.0,0.0,57.6945163,11.9331459
Barometergatan 35,Lägenhet,Länsmansgården,Göteborgs kommun,74.3,3.0,4228.0,1670000,2022-08-10,5.0,22476.0,0.0,0.0,57.7371261,11.8901997
Lantmilsgatan 34,Lägenhet,Kaverös,Göteborgs kommun,73.5,3.0,4535.0,2100000,2022-08-10,5.0,28571.0,0.0,0.0,57.6648055,11.9255652
Famngatan 10 lägenhet 222,Lägenhet,Högsbo,Göteborgs kommun,29.0,1.0,1635.0,1495000,2022-08-10,0.0,51552.0,0.0,0.0,,
Silvermyntsgatan 19,Lägenhet,Högsbo,Göteborgs kommun,29.0,1.0,2119.0,1700000,2022-08-10,14.0,58621.0,0.0,0.0,57.6737704,11.9293906
Doktor Hjorts gata 8B,Lägenhet,Södra Guldheden,Göteborgs kommun,54.0,2.0,3407.0,3175000,2022-08-10,13.0,58796.0,0.0,0.0,57.6829754,11.9731744
Karolinernas gata 3,Lägenhet,Hisings Backa,Göteborgs kommun,64.5,2.0,3824.0,1400000,2022-08-10,-6.0,21705.0,0.0,0.0,57.753065,11.9789721
Färgaregatan 5,Lägenhet,Prippska Tomten,Göteborgs kommun,68.3,2.0,4079.0,3800000,2022-08-10,-2.0,55637.0,0.0,0.0,57.7084874,11.9828132
Kalendervägen 101,Lägenhet,Kortedala,Göteborgs kommun,30.5,1.0,1909.0,1200000,2022-08-10,0.0,39344.0,0.0,0.0,57.7528664,12.0376567
Strandridaregatan 1A,Lägenhet,Kungsladugård,Göteborgs kommun,60.0,2.0,2940.0,4100000,2022-08-10,3.0,68333.0,0.0,0.0,57.6857067,11.9171734
Sörhallspromenaden 33,Villa,Sannegårdshamnen,Göteborgs kommun,135.0,5.0,,8850000,2022-08-10,4.0,65556.0,153.7,0.0,57.7047838,11.9203021
Nordostpassagen 57,Lägenhet,Linné,Göteborgs kommun,30.0,1.0,1918.0,2195000,2022-08-10,0.0,73167.0,0.0,0.0,57.6929224,11.9473145
Anders Personsgatan 11,Lägenhet,Nya Gårda,Göteborgs kommun,101.0,3.0,5856.0,6000000,2022-08-10,,59406.0,0.0,0.0,57.7096595,11.9938942
Källsprångsgatan 5,Lägenhet,Norra Guldheden,Göteborgs kommun,57.5,2.5,3204.0,2800000,2022-08-10,-2.0,48696.0,0.0,0.0,57.6883357,11.9624259
Björcksgatan 36B,Lägenhet,Kålltorp,Göteborgs kommun,34.0,1.0,2782.0,1985000,2022-08-10,2.0,58382.0,0.0,0.0,57.7174522,12.0272193
Kamomillvägen 19,Lägenhet,Hildedal,Göteborgs kommun,112.0,4.0,6612.0,4100000,2022-08-10,0.0,36607.0,0.0,0.0,57.7322801,11.9418529
Ingefärsgatan 99,Radhus,Angered,Göteborgs kommun,135.0,5.0,5970.0,2300000,2022-08-10,-18.0,17037.0,0.0,0.0,57.8132391,12.0374599
Doktor Lindhs gata 4,Lägenhet,Södra Guldheden,Göteborgs kommun,38.1,1.0,1917.0,2400000,2022-08-10,4.0,62992.0,0.0,0.0,57.6810319,11.9673418
Marklandsgatan 47,Lägenhet,Högsbo,Göteborgs kommun,93.5,4.0,5735.0,3050000,2022-08-10,9.0,32620.0,0.0,0.0,57.6704527,11.9368553
Sjömilsgatan 28,Lägenhet,Flatås,Göteborgs kommun,61.5,2.0,2658.0,2100000,2022-08-10,0.0,34146.0,0.0,0.0,57.6622989,11.9281728
Ekebygatan 2,Lägenhet,Hisings Backa,Göteborgs kommun,65.4,2.0,4824.0,1570000,2022-08-10,-1.0,24006.0,0.0,0.0,57.7567585,11.98916562397461
Gustavsgatan 70,Lägenhet,Bagaregården,Göteborgs kommun,40.0,1.0,2611.0,1850000,2022-08-10,9.0,46250.0,0.0,0.0,57.72398225,12.016806325052029
Borstbindaregatan 5 ACCEPTERAT PRIS,Lägenhet,Centrala Hisingen Kvillebäcken,Göteborgs kommun,54.0,2.0,3352.0,2600000,2022-08-10,-4.0,48148.0,0.0,0.0,,
Lars kaggsgatan 47B,Lägenhet,Gamlestaden,Göteborgs kommun,35.0,1.0,2574.0,1750000,2022-08-10,0.0,50000.0,0.0,0.0,57.7330112,12.0218728
Stekastigen 10,Lägenhet,Agnesberg,Göteborgs kommun,60.5,2.0,4668.0,1295000,2022-08-10,0.0,21405.0,0.0,0.0,57.789726,12.0248862
Träringen 20,Lägenhet,Björkekärr,Göteborgs kommun,54.0,2.0,3698.0,2150000,2022-08-10,-4.0,39815.0,0.0,0.0,57.7143571,12.054657
Ullmansgatan 5A,Lägenhet,Övre Eriksberg,Göteborgs kommun,23.0,1.0,1940.0,1650000,2022-08-10,-1.0,71739.0,0.0,9.5,57.7096246,11.9133825
Stafettgatan 4A,Lägenhet,Lunden,Göteborgs kommun,34.0,1.0,2424.0,1950000,2022-08-10,0.0,57353.0,0.0,0.0,57.7076694,12.0003871
Långängen 8A,Lägenhet,Kvillebäcken,Göteborgs kommun,39.0,1.0,2852.0,2400000,2022-08-09,0.0,61538.0,0.0,0.0,57.7217393,11.9491147
Transistorgatan 19,Lägenhet,Frölunda,Göteborgs kommun,85.0,3.0,3515.0,4250000,2022-08-09,13.0,50000.0,0.0,0.0,57.6573688,11.919666
Topasgatan 85,Lägenhet,Tynnered,Göteborgs kommun,49.0,1.5,2737.0,1925000,2022-08-09,4.0,39286.0,0.0,0.0,57.6498491,11.9052795
Lillekärr Norra 8,Lägenhet,Hisings Kärra,Göteborgs kommun,75.9,3.0,4914.0,1875000,2022-08-09,-6.0,24704.0,0.0,0.0,57.7971667,11.9901499
Klyfteråsen 62,Lägenhet,Skintebo,Göteborgs kommun,54.0,2.0,3975.0,2160000,2022-08-09,3.0,40000.0,0.0,0.0,57.5949403,11.938546350270272
Övralidsgatan 5,Lägenhet,Hisings Backa,Göteborgs kommun,79.0,3.0,4793.0,1775000,2022-08-09,0.0,22468.0,0.0,0.0,57.7543682,11.975449
Ebbe Lieberathsgatan 14B,Lägenhet,Johanneberg Almedal,Göteborgs kommun,63.0,2.0,3273.0,3490000,2022-08-09,0.0,55397.0,0.0,0.0,57.6820641,11.9991447
Astris Gata 96,Lägenhet,Eriksberg,Göteborgs kommun,59.0,2.0,3372.0,2850000,2022-08-09,2.0,48305.0,0.0,0.0,57.6993129,11.9025954
Grafiska vägen 4A,Lägenhet,Södra Centrum,Göteborgs kommun,33.0,1.0,2198.0,2250000,2022-08-09,0.0,68182.0,0.0,0.0,57.6817666,12.0023971
Barbro Hörbergs Gata 7,Lägenhet,Örgryte Torp,Göteborgs kommun,81.0,3.0,2955.0,5750000,2022-08-09,0.0,70988.0,0.0,0.0,57.6991589,12.0161251
Andra Långgatan 28,Lägenhet,Linnéstaden,Göteborgs kommun,81.0,3.0,3185.0,3980000,2022-08-09,0.0,49136.0,0.0,0.0,57.6987778,11.9456727
Rustmästaregatan 5,Lägenhet,Kviberg,Göteborgs kommun,55.0,2.0,3834.0,2500000,2022-08-09,9.0,45455.0,0.0,0.0,57.73187735,12.024082999999996
Nordostpassagen 59,Lägenhet,Linné,Göteborgs kommun,83.0,3.0,4263.0,4600000,2022-08-09,8.0,55422.0,0.0,0.0,57.6926855,11.947316
Träringen 13,Lägenhet,Björkekärr,Göteborgs kommun,54.0,2.0,3755.0,2380000,2022-08-09,0.0,44074.0,0.0,0.0,57.714211,12.0538778
Stockholmsgatan 40J,Lägenhet,Bagaregården,Göteborgs kommun,36.9,1.0,2278.0,2200000,2022-08-09,13.0,59621.0,0.0,0.0,57.7235123,12.0088676
Karlatornet (Lodjursstråket 1),Lägenhet,Lindholmen,Göteborgs kommun,105.5,4.0,6773.0,13000000,2022-08-09,0.0,123223.0,0.0,0.0,,
Chalmersgatan 27B,Lägenhet,Lorensberg,Göteborgs kommun,27.0,1.0,1305.0,2725000,2022-08-09,21.0,100926.0,0.0,0.0,57.6979797,11.9754751
Lärjeheds fritidsområde stuga nr 27,Fritidshus,Linnarhult,Göteborgs kommun,40.0,2.0,,550000,2022-08-09,12.0,13750.0,410.0,45.0,,
Föreningsgatan 16A,Lägenhet,Vasastaden,Göteborgs kommun,65.0,2.0,3992.0,3275000,2022-08-09,10.0,50385.0,0.0,0.0,57.6952346,11.9662602
Cederflychts gata 7,Lägenhet,Hisings Backa,Göteborgs kommun,93.4,4.0,6783.0,2000000,2022-08-09,0.0,21413.0,0.0,0.0,57.75275395,11.988996209764409
Ebbe Lieberathsgatan 14B,Lägenhet,Södra Centrum,Göteborgs kommun,66.0,2.0,3372.0,3950000,2022-08-09,0.0,59848.0,0.0,0.0,57.6820641,11.9991447
Gustavsgatan 53,Lägenhet,Bagaregårde,Göteborgs kommun,57.0,2.0,3336.0,2295000,2022-08-09,0.0,40263.0,0.0,0.0,57.72371395,12.017605555534352
Monsungatan 32,Lägenhet,Eriksberg,Göteborgs kommun,37.0,1.5,2130.0,2540000,2022-08-09,4.0,68649.0,0.0,0.0,57.6984746,11.9084647
Kvarnkullevägen 2D,Lägenhet,Torslanda,Göteborgs kommun,77.5,3.0,4028.0,2900000,2022-08-08,-3.0,37419.0,0.0,0.0,57.7232492,11.7710619
Kvarnkullevägen 4L,Lägenhet,Torslanda,Göteborgs kommun,61.0,2.0,3206.0,2365000,2022-08-08,-5.0,38770.0,0.0,0.0,57.7232492,11.7710619
Kobergsgatan 24,Lägenhet,Strömmensberg,Göteborgs kommun,47.0,2.0,3303.0,2550000,2022-08-08,2.0,54255.0,0.0,0.0,57.7205258,12.0154565
Smörslottsgatan 61,Lägenhet,Björkekärr,Göteborgs kommun,66.1,2.0,4592.0,3050000,2022-08-08,9.0,46142.0,0.0,0.0,57.7143983,12.0557054
Astris Gata 86,Lägenhet,Eriksberg,Göteborgs kommun,42.0,1.0,2567.0,2350000,2022-08-08,3.0,55952.0,0.0,0.0,57.6993113,11.9036613
Bratteråsgatan 40,Lägenhet,Eriksberg,Göteborgs kommun,78.0,3.0,4256.0,7100000,2022-08-08,-3.0,91026.0,0.0,0.0,57.7036654,11.9146426
Bratteråsbacken 35,Lägenhet,Eriksberg,Göteborgs kommun,43.0,2.0,3189.0,2700000,2022-08-08,0.0,62791.0,0.0,0.0,57.70258325,11.915994550000002
Övre Djupedalsgatan 11D, lgh 3,Lägenhet,Linnéstaden,Göteborgs kommun,27.0,1.0,1462.0,2600000,2022-08-08,0.0,96296.0,0.0,0.0,,
Rustmästaregatan 23,Lägenhet,Kviberg,Göteborgs kommun,55.0,2.0,3177.0,2500000,2022-08-08,9.0,45455.0,0.0,0.0,57.7329993,12.0270756
Anders Personsgatan 9,Lägenhet,Nya Gårda,Göteborgs kommun,101.0,3.0,5856.0,6000000,2022-08-08,-6.0,59406.0,0.0,0.0,57.7112355,11.9953616
Sandlidsvägen 1B,Radhus,Hisings Backa Skogome,Göteborgs kommun,105.0,4.0,,3955000,2022-08-08,13.0,37667.0,341.0,18.0,57.7652175,11.9466223
Kastellgatan 9,Lägenhet,Linnéstaden,Göteborgs kommun,34.0,1.5,2292.0,3200000,2022-08-08,5.0,94118.0,0.0,0.0,57.6941708,11.9550848
Penselgatan 6,Lägenhet,Centrala Hisingen Kvillebäcken,Göteborgs kommun,76.5,3.0,4641.0,3650000,2022-08-07,-3.0,47712.0,0.0,0.0,57.7236429,11.9492663
Gibraltargatan 38,Lägenhet,Johanneberg,Göteborgs kommun,80.0,3.0,4870.0,4300000,2022-08-07,3.0,53750.0,0.0,0.0,57.6893558,11.9810027
Valnötsgatan 8C,Villa,Hagen,Göteborgs kommun,145.0,7.0,,9000000,2022-08-07,,62069.0,540.1,74.0,57.6744549,11.87909517535294
Hovås Allé 40,Lägenhet,Hovås,Göteborgs kommun,67.0,3.0,4493.0,3750000,2022-08-07,-1.0,55970.0,0.0,0.0,57.60194355,11.955632477254746
Bååthsgatan 23,Villa,Kvillebäcken,Göteborgs kommun,160.0,7.0,,5550000,2022-08-07,-4.0,34688.0,518.1,60.0,57.7261809,11.93575035
Lövskogsgatan 16,Lägenhet,Norra Guldheden,Göteborgs kommun,56.5,2.0,3401.0,3560000,2022-08-06,11.0,63009.0,0.0,0.0,57.6895046,11.9614967
Vidblicksgatan 1,Lägenhet,Nedre Johanneberg,Göteborgs kommun,121.0,5.0,5773.0,6300000,2022-08-06,-15.0,52066.0,0.0,0.0,57.6916483,11.978688669999991
Arkivgatan 6,Lägenhet,Lorensberg,Göteborgs kommun,43.0,1.5,2295.0,3800000,2022-08-06,9.0,88372.0,0.0,0.0,57.6972032,11.9767723
Turkosgatan 33,Lägenhet,Tynnered,Göteborgs kommun,113.3,5.0,6775.0,3100000,2022-08-06,4.0,27361.0,0.0,0.0,57.6475282,11.8968758
Övre Husargatan 21 A,Lägenhet,Linnéstaden,Göteborgs kommun,76.0,3.0,1963.0,5600000,2022-08-05,2.0,73684.0,0.0,0.0,57.6931699,11.9559993
Bratteråsgatan 46,Lägenhet,Eriksberg,Göteborgs kommun,46.0,1.5,2944.0,2375000,2022-08-05,0.0,51630.0,0.0,0.0,57.7049651,11.9136668
Skogaberg 7,Villa,Hisings Backa,Göteborgs kommun,140.0,6.0,,6400000,2022-08-05,-5.0,45714.0,251.0,0.0,57.74729665,11.954421006591447
Jättegrytsgatan 3A,Lägenhet,Örgryte Jakobsdal,Göteborgs kommun,38.0,1.0,2298.0,2100000,2022-08-05,-5.0,55263.0,0.0,0.0,57.6954889,11.9983365
Eriksbergstorget 3,Lägenhet,Eriksberg,Göteborgs kommun,75.5,3.0,3602.0,6400000,2022-08-05,4.0,84768.0,0.0,0.0,57.7003924,11.91348
Övralidsgatan 1,Lägenhet,Hisings Backa,Göteborgs kommun,101.5,4.0,7068.0,2790000,2022-08-05,0.0,27488.0,0.0,0.0,57.7543682,11.975449
Kabelgatan 33D,Lägenhet,Majorna,Göteborgs kommun,56.0,2.0,4173.0,3065000,2022-08-05,3.0,54732.0,0.0,0.0,57.6880522,11.9262699
Solhagagatan 100,Lägenhet,Hisings Kärra,Göteborgs kommun,76.7,3.0,5524.0,2200000,2022-08-05,5.0,28683.0,0.0,0.0,57.7986862,11.9935764
Stabbegatan 22,Lägenhet,Björkekärr,Göteborgs kommun,62.0,3.0,3774.0,2750000,2022-08-05,-1.0,44355.0,0.0,0.0,57.7171932,12.0481064
Vintervädersgatan 15,Lägenhet,Biskopsgården,Göteborgs kommun,22.1,1.0,1502.0,850000,2022-08-05,1.0,38462.0,0.0,0.0,57.7252718,11.8959868
Norra liden 23 ,Lägenhet,Kungshöjd,Göteborgs kommun,58.1,2.0,2770.0,3175000,2022-08-05,0.0,54647.0,0.0,0.0,57.7038101,11.9591711
Frödingsgatan  8C,Lägenhet,Strömmensberg,Göteborgs kommun,39.0,1.0,2590.0,2160000,2022-08-05,3.0,55385.0,0.0,0.0,57.7220207,12.020301
Gröna gatan 49,Lägenhet,Majorna,Göteborgs kommun,41.8,1.0,3444.0,1900000,2022-08-05,0.0,45455.0,0.0,0.0,57.6919604,11.9166627
Wingårdsgatan 5B,Lägenhet,Kålltorp,Göteborgs kommun,36.0,2.0,3045.0,2200000,2022-08-05,-2.0,61111.0,0.0,0.0,57.7092679,12.0243772
Fastlagsgatan 13,Lägenhet,Kortedala,Göteborgs kommun,54.5,2.0,4596.0,1500000,2022-08-04,1.0,27523.0,0.0,0.0,57.7552671,12.0307602
Brygghusvägen 14,Lägenhet,Torslanda,Göteborgs kommun,74.0,3.0,3890.0,3700000,2022-08-04,4.0,50000.0,0.0,0.0,57.755034,11.8288555
Arvesgärde 41,Lägenhet,Tuve,Göteborgs kommun,65.5,2.0,3630.0,1750000,2022-08-04,-5.0,26718.0,0.0,0.0,57.7519948,11.9206314
Generalsgatan 4,Lägenhet,Kviberg,Göteborgs kommun,34.0,1.5,3003.0,1980000,2022-08-04,-1.0,58235.0,0.0,0.0,57.7310921,12.0243886
Mårbackagatan 2,Lägenhet,Hisings Backa,Göteborgs kommun,42.7,1.5,3510.0,1210000,2022-08-04,22.0,28337.0,0.0,0.0,57.75692095,11.987984766488882
Västra midvintersgatan 6,Lägenhet,Kortedala,Göteborgs kommun,31.0,1.0,2471.0,1150000,2022-08-04,21.0,37097.0,0.0,0.0,57.7560266,12.0284334
Småstugevägen 65,Lägenhet,Fräntorp,Göteborgs kommun,56.0,2.0,3267.0,2090000,2022-08-04,5.0,37321.0,0.0,0.0,57.7286617,12.0509441
Handelsmyntet 14,Lägenhet,Högsbo,Göteborgs kommun,35.0,1.0,2034.0,2350000,2022-08-04,12.0,67143.0,0.0,0.0,57.67270645,11.9265348148624
Lillgårdens Gränd 2,Lägenhet,Hovås,Göteborgs kommun,62.5,2.0,3532.0,4150000,2022-08-04,,66400.0,0.0,0.0,57.5988868,11.9516203
Vaktmästaregången 9,Lägenhet,Masthugget,Göteborgs kommun,61.5,3.0,3544.0,3670000,2022-08-04,12.0,59675.0,0.0,0.0,57.6962339,11.9403324
Arvesgärde 19,Lägenhet,Tuve,Göteborgs kommun,62.0,2.0,4188.0,1850000,2022-08-04,0.0,29839.0,0.0,0.0,57.7509929,11.9230292
Storgatan 7,Lägenhet,Centrum,Göteborgs kommun,30.0,1.5,2244.0,2800000,2022-08-04,4.0,93333.0,0.0,0.0,57.699077,11.964335
Artillerigatan 38,Lägenhet,Gamlestaden,Göteborgs kommun,84.0,4.0,4983.0,3990000,2022-08-04,0.0,47500.0,0.0,0.0,57.7305321,12.0179982
Hallmans väg 50,Villa,Olofstorp,Göteborgs kommun,115.0,4.0,,3850000,2022-08-04,0.0,33478.0,915.0,64.0,57.7989522,12.1594171
Nolehultsvägen 3,Lägenhet,Tuve,Göteborgs kommun,61.0,2.0,3331.0,2200000,2022-08-04,5.0,36066.0,0.0,0.0,57.7543131,11.9286764
Falkgatan 14C,Lägenhet,Bagaregården,Göteborgs kommun,32.5,1.0,2125.0,2000000,2022-08-04,12.0,61538.0,0.0,0.0,57.7186056,12.0060396
Steken 1D,Lägenhet,Gårdstensbergen,Göteborgs kommun,34.5,1.0,1504.0,1170000,2022-08-04,7.0,33913.0,0.0,0.0,57.7895861,12.0207656
Slåttängsgatan 33,Villa,Utby,Göteborgs kommun,68.0,4.0,,4400000,2022-08-04,-12.0,64706.0,480.0,68.0,57.7399974,12.058275
Lundgatan 14 lgh 1103,Lägenhet,Lunden,Göteborgs kommun,80.0,2.0,4644.0,4230000,2022-08-04,0.0,52875.0,0.0,0.0,,
Volrat Thamsgatan 15,Lägenhet,Johanneberg,Göteborgs kommun,27.8,1.0,2018.0,2330000,2022-08-03,-2.0,83813.0,0.0,0.0,57.6906639,11.9867383
Astris Gata 70,Lägenhet,Eriksberg,Göteborgs kommun,68.0,3.0,3424.0,3500000,2022-08-03,-2.0,51471.0,0.0,0.0,57.6995091,11.9042394
Julaftonsgatan 70,Villa,Kortedala,Göteborgs kommun,95.0,6.0,,4250000,2022-08-03,0.0,44737.0,532.2,60.0,57.7622643,12.0356354
Lillekärr norra 90,Lägenhet,Hisings Kärra,Göteborgs kommun,65.2,2.0,4039.0,1600000,2022-08-03,15.0,24540.0,0.0,0.0,57.7971667,11.9901499
Sagogången 14,Lägenhet,Hisings Backa,Göteborgs kommun,63.0,2.0,4584.0,1810000,2022-08-03,,28730.0,0.0,0.0,57.740771,11.9750742
Bångegatan 2A,Lägenhet,Gamlestaden,Göteborgs kommun,43.0,2.0,3279.0,1890000,2022-08-03,0.0,43953.0,0.0,0.0,57.7337524,12.017194
Linnégatan 54,,Lägenhet,Linné,Göteborgs kommun,99.0,3.0,4383.0,6400000,2022-08-03,-5.0,64646.0,0.0,0.0,57.6934445,11.9529342
Aspirantgatan 3,Lägenhet,Kviberg,Göteborgs kommun,38.0,1.5,2591.0,2020000,2022-08-03,7.0,53158.0,0.0,0.0,57.732168,12.0251829
Aspirantgatan 5,Lägenhet,Kviberg,Göteborgs kommun,85.0,3.5,4772.0,3750000,2022-08-03,-1.0,44118.0,0.0,0.0,57.732168,12.0251829
Herregårdsgärdet 12,Radhus,Hjällbo,Göteborgs kommun,118.0,6.0,,3750000,2022-08-03,0.0,31780.0,352.0,59.0,57.7646232,12.0143518
Badvädersgatan 5,Lägenhet,Biskopsgården,Göteborgs kommun,66.9,3.0,4586.0,1500000,2022-08-03,2.0,22422.0,0.0,0.0,57.7258377,11.8965054
Norra Liden 29,Lägenhet,Otterhällan,Göteborgs kommun,133.3,5.0,10303.0,7000000,2022-08-03,12.0,52513.0,0.0,0.0,57.7040212,11.9586425
